Restaurant Name,Category Name,Latitude_x,Longitude_x,Distance,Rating,Number of Reviews,Price Point,Bike Station Lat,Bike Station Lon,Station Name,Latitude_y,Longitude_y,Number of Bikes
Jaclyn's,caribbean,43.66627,-79.31802,172.3751336,4.5,16,no data,43.665269,-79.319796,Queen St E / Woodward Ave,43.665269,-79.319796,7
Lake Inez,bars,43.67234,-79.32064,794.661955,4.5,94,$$$,43.665269,-79.319796,Queen St E / Woodward Ave,43.665269,-79.319796,7
Casa Di Giorgios,italian,43.6668499,-79.31518,408.7157245,4.0,75,$$,43.665269,-79.319796,Queen St E / Woodward Ave,43.665269,-79.319796,7
Tulia Osteria,pizza,43.66487,-79.32425,365.1153942,5.0,1,no data,43.665269,-79.319796,Queen St E / Woodward Ave,43.665269,-79.319796,7
Betty’s East,salad,43.663455,-79.327992,689.7787206,4.0,5,no data,43.665269,-79.319796,Queen St E / Woodward Ave,43.665269,-79.319796,7
Beach Club,seafood,43.6632065,-79.3100133,839.3120734,3.0,19,no data,43.665269,-79.319796,Queen St E / Woodward Ave,43.665269,-79.319796,7
Maru Japanese Bistro,japanese,43.66471996,-79.32426283,364.448505,4.0,17,no data,43.665269,-79.319796,Queen St E / Woodward Ave,43.665269,-79.319796,7
Le Conciliabule,bakeries,43.671365,-79.3272249,903.6090778,4.5,13,no data,43.665269,-79.319796,Queen St E / Woodward Ave,43.665269,-79.319796,7
The Sidekick,cafes,43.6645889,-79.3251114,436.0032949,4.5,31,$,43.665269,-79.319796,Queen St E / Woodward Ave,43.665269,-79.319796,7
Puerto Bravo,mexican,43.67203,-79.32231,777.9806692,4.5,4,no data,43.665269,-79.319796,Queen St E / Woodward Ave,43.665269,-79.319796,7
Mattachioni,grocery,43.67264,-79.31973,815.1485645,4.5,5,no data,43.665269,-79.319796,Queen St E / Woodward Ave,43.665269,-79.319796,7
British Style Fish & Chips,fishnchips,43.66861,-79.31723,426.6274769,4.0,53,$,43.665269,-79.319796,Queen St E / Woodward Ave,43.665269,-79.319796,7
The Burger's Priest,burgers,43.66669959,-79.3155846,374.2380726,3.5,507,$$,43.665269,-79.319796,Queen St E / Woodward Ave,43.665269,-79.319796,7
Yaya Greek Bistro,breakfast_brunch,43.66307838,-79.33178893,994.967613,4.0,82,$$,43.665269,-79.319796,Queen St E / Woodward Ave,43.665269,-79.319796,7
Good Behaviour,sandwiches,43.67162641,-79.32564631,849.2026845,4.5,11,no data,43.665269,-79.319796,Queen St E / Woodward Ave,43.665269,-79.319796,7
Chick-N-Joy,hotdogs,43.66509,-79.32132,125.4831324,4.0,57,$,43.665269,-79.319796,Queen St E / Woodward Ave,43.665269,-79.319796,7
O Sushi,sushi,43.66654,-79.31693,277.5695824,4.0,61,$$,43.665269,-79.319796,Queen St E / Woodward Ave,43.665269,-79.319796,7
Toto Sushi,japanese,43.672262,-79.3212267,786.0540023,4.5,32,no data,43.665269,-79.319796,Queen St E / Woodward Ave,43.665269,-79.319796,7
Jules Bistro,bistros,43.66389,-79.32859,724.0458166,3.5,31,no data,43.665269,-79.319796,Queen St E / Woodward Ave,43.665269,-79.319796,7
Black Pony,cafes,43.67241,-79.3204,805.5180733,4.5,8,no data,43.665269,-79.319796,Queen St E / Woodward Ave,43.665269,-79.319796,7
Maha's,egyptian,43.67167,-79.32853,1005.190035,4.0,599,$$,43.665269,-79.319796,Queen St E / Woodward Ave,43.665269,-79.319796,7
GG's,burgers,43.6632065,-79.3100133,839.3120734,3.5,4,no data,43.665269,-79.319796,Queen St E / Woodward Ave,43.665269,-79.319796,7
Burrito Bandidos,mexican,43.6665611,-79.3164215,286.249065,3.5,58,$$,43.665269,-79.319796,Queen St E / Woodward Ave,43.665269,-79.319796,7
Nodo Leslieville,italian,43.66311,-79.33162,983.1152025,4.0,37,no data,43.665269,-79.319796,Queen St E / Woodward Ave,43.665269,-79.319796,7
Gio Rana's Really Really Nice Restaurant,italian,43.66333534,-79.33041893,881.1241172,4.0,229,$$$,43.665269,-79.319796,Queen St E / Woodward Ave,43.665269,-79.319796,7
Occasions Restaurant,greek,43.67338,-79.31823,908.6517424,4.0,46,$$,43.665269,-79.319796,Queen St E / Woodward Ave,43.665269,-79.319796,7
McDonald's,hotdogs,43.6650808,-79.3192955,32.41673667,2.5,24,$,43.665269,-79.319796,Queen St E / Woodward Ave,43.665269,-79.319796,7
Hastings Snack Bar,polish,43.66381,-79.32893,755.3857132,4.5,42,$,43.665269,-79.319796,Queen St E / Woodward Ave,43.665269,-79.319796,7
Lazy Daisy's Cafe,cafes,43.6726699,-79.3194,828.6620562,4.0,152,$$,43.665269,-79.319796,Queen St E / Woodward Ave,43.665269,-79.319796,7
BIRDIES Fried Chicken,chickenshop,43.6732457,-79.3191636,888.1996124,4.5,10,no data,43.665269,-79.319796,Queen St E / Woodward Ave,43.665269,-79.319796,7
Simple Coffee,cafes,43.6668164,-79.3156156,377.7194533,4.5,2,no data,43.665269,-79.319796,Queen St E / Woodward Ave,43.665269,-79.319796,7
Karma's Kitchen,himalayan,43.67183,-79.32305,772.1052135,4.0,62,$$,43.665269,-79.319796,Queen St E / Woodward Ave,43.665269,-79.319796,7
Bombay Chowpatty,indpak,43.67198226,-79.32437406,832.357744,3.0,58,$,43.665269,-79.319796,Queen St E / Woodward Ave,43.665269,-79.319796,7
Leslie Jones,comfortfood,43.6628904,-79.3318366,1003.990118,4.0,76,$$,43.665269,-79.319796,Queen St E / Woodward Ave,43.665269,-79.319796,7
The Thirsty Loon,bars,43.67239418,-79.31990607,792.3322185,4.0,1,no data,43.665269,-79.319796,Queen St E / Woodward Ave,43.665269,-79.319796,7
Leela Indian Food Bar,indpak,43.6719741,-79.3243773,829.0861018,4.0,17,no data,43.665269,-79.319796,Queen St E / Woodward Ave,43.665269,-79.319796,7
Shawarma Day,mediterranean,43.666463,-79.316964,262.2290984,0.0,0,no data,43.665269,-79.319796,Queen St E / Woodward Ave,43.665269,-79.319796,7
Desi Burger,hotdogs,43.6718199,-79.3247,828.4504181,4.0,16,no data,43.665269,-79.319796,Queen St E / Woodward Ave,43.665269,-79.319796,7
Regency Restaurant,indpak,43.67201,-79.32238,779.0130455,4.0,79,$$,43.665269,-79.319796,Queen St E / Woodward Ave,43.665269,-79.319796,7
Shawarma Day,mediterranean,43.666463,-79.316964,262.2290984,0.0,0,no data,43.665269,-79.319796,Queen St E / Woodward Ave,43.665269,-79.319796,7
The Famous Indian Cuisine,indpak,43.6721178,-79.32321958,809.80674,4.0,66,$$,43.665269,-79.319796,Queen St E / Woodward Ave,43.665269,-79.319796,7
Lahore Chaat & Desi Burger House,pakistani,43.67188,-79.3246,836.073363,4.0,16,$,43.665269,-79.319796,Queen St E / Woodward Ave,43.665269,-79.319796,7
Mumbai Frankie,indpak,43.67196,-79.32433,829.0861018,0.0,0,no data,43.665269,-79.319796,Queen St E / Woodward Ave,43.665269,-79.319796,7
Lahore Tikka House,halal,43.67148,-79.32451,787.4737978,3.5,544,$$,43.665269,-79.319796,Queen St E / Woodward Ave,43.665269,-79.319796,7
JP Restaurant,pubs,43.67303,-79.31955,868.716398,3.5,10,no data,43.665269,-79.319796,Queen St E / Woodward Ave,43.665269,-79.319796,7
Blondies,pizza,43.66683,-79.3302099,861.4874303,4.0,53,no data,43.665269,-79.319796,Queen St E / Woodward Ave,43.665269,-79.319796,7
The Social Gardener,vegan,43.6716439,-79.3253848,839.3721468,3.5,5,$,43.665269,-79.319796,Queen St E / Woodward Ave,43.665269,-79.319796,7
Maestro Omar’s Gourmet Pizza,pizza,43.66906,-79.31196,760.3739599,4.0,8,no data,43.665269,-79.319796,Queen St E / Woodward Ave,43.665269,-79.319796,7
Tea N Bannock,tradamerican,43.671182,-79.3273557,895.5565315,4.5,47,$$,43.665269,-79.319796,Queen St E / Woodward Ave,43.665269,-79.319796,7
Sushi On Gerrard,sushi,43.670655,-79.328144,904.0855015,0.0,0,no data,43.665269,-79.319796,Queen St E / Woodward Ave,43.665269,-79.319796,7
Agio,italian,43.67599,-79.45066,646.471211,4.5,190,$$,43.67142,-79.445947,Primrose Ave / Davenport Rd,43.67142,-79.445947,13
North Of Brooklyn,pizza,43.66922726,-79.43916335,597.6101584,4.0,44,no data,43.67142,-79.445947,Primrose Ave / Davenport Rd,43.67142,-79.445947,13
Famiglia Baldassarre,italian,43.67052,-79.4350599,888.6585807,4.5,74,$$,43.67142,-79.445947,Primrose Ave / Davenport Rd,43.67142,-79.445947,13
Rush Hour,portuguese,43.67111,-79.44037,440.3807915,4.5,48,$$,43.67142,-79.445947,Primrose Ave / Davenport Rd,43.67142,-79.445947,13
Parallel,mediterranean,43.66944508,-79.43858039,631.8823306,4.0,105,$$,43.67142,-79.445947,Primrose Ave / Davenport Rd,43.67142,-79.445947,13
Meta Dos Leitoes,portuguese,43.66984,-79.43848,622.2462798,4.5,7,$$,43.67142,-79.445947,Primrose Ave / Davenport Rd,43.67142,-79.445947,13
The Sovereign,cafes,43.67299,-79.44002,506.7789643,4.5,36,$$,43.67142,-79.445947,Primrose Ave / Davenport Rd,43.67142,-79.445947,13
Love Chix,chickenshop,43.6696641,-79.4486514,292.2904736,4.0,44,$$,43.67142,-79.445947,Primrose Ave / Davenport Rd,43.67142,-79.445947,13
Century Park Tavern,breakfast_brunch,43.6696641,-79.44877238,299.6021922,3.5,3,no data,43.67142,-79.445947,Primrose Ave / Davenport Rd,43.67142,-79.445947,13
King's Tacos,mexican,43.67803,-79.4440599,748.002523,4.0,81,$$,43.67142,-79.445947,Primrose Ave / Davenport Rd,43.67142,-79.445947,13
Rio 40 Restaurant,brazilian,43.677457,-79.446485,672.12287,4.0,63,$$,43.67142,-79.445947,Primrose Ave / Davenport Rd,43.67142,-79.445947,13
Defina Wood Fired,pizza,43.66578,-79.4502399,711.2083598,3.5,26,no data,43.67142,-79.445947,Primrose Ave / Davenport Rd,43.67142,-79.445947,13
Brasa Peruvian Kitchen,salad,43.66551084,-79.4496221,720.4972412,5.0,8,no data,43.67142,-79.445947,Primrose Ave / Davenport Rd,43.67142,-79.445947,13
El Sazón Mexicano,mexican,43.67706084,-79.44778737,644.4584382,4.0,11,no data,43.67142,-79.445947,Primrose Ave / Davenport Rd,43.67142,-79.445947,13
CANO Restaurant,italian,43.67871,-79.44058,920.0498725,4.5,71,$$,43.67142,-79.445947,Primrose Ave / Davenport Rd,43.67142,-79.445947,13
BSTO.,comfortfood,43.67694637,-79.44849606,647.7983731,5.0,1,no data,43.67142,-79.445947,Primrose Ave / Davenport Rd,43.67142,-79.445947,13
Piri Piri Grill,portuguese,43.66625153,-79.44977626,652.0344442,3.5,52,$$,43.67142,-79.445947,Primrose Ave / Davenport Rd,43.67142,-79.445947,13
Good Behaviour,icecream,43.67077102,-79.434624,913.5514326,4.5,47,no data,43.67142,-79.445947,Primrose Ave / Davenport Rd,43.67142,-79.445947,13
La Morena,cafes,43.67771968,-79.44343116,729.1281879,5.0,8,no data,43.67142,-79.445947,Primrose Ave / Davenport Rd,43.67142,-79.445947,13
Itacate,mexican,43.67939085,-79.43716116,1133.499452,4.5,57,$$,43.67142,-79.445947,Primrose Ave / Davenport Rd,43.67142,-79.445947,13
A Ria Restaurante,portuguese,43.6766331,-79.44975682,655.6681649,4.0,2,no data,43.67142,-79.445947,Primrose Ave / Davenport Rd,43.67142,-79.445947,13
Atomic 10,mexican,43.67849,-79.43952,931.635048,4.5,30,no data,43.67142,-79.445947,Primrose Ave / Davenport Rd,43.67142,-79.445947,13
Royal Caribbean Cafe,caribbean,43.67813,-79.44103,843.8130431,4.0,29,$$,43.67142,-79.445947,Primrose Ave / Davenport Rd,43.67142,-79.445947,13
Don Quixote,portuguese,43.6763235,-79.4494733,607.5270956,4.0,5,no data,43.67142,-79.445947,Primrose Ave / Davenport Rd,43.67142,-79.445947,13
La Bruschetta Restaurant,italian,43.67642,-79.4487599,600.3999691,4.0,39,$$$,43.67142,-79.445947,Primrose Ave / Davenport Rd,43.67142,-79.445947,13
DUCKiiN,fooddeliveryservices,43.6704457,-79.4490499,276.0104127,0.0,0,no data,43.67142,-79.445947,Primrose Ave / Davenport Rd,43.67142,-79.445947,13
Tre Mari Bakery,bakeries,43.6765,-79.44868,600.1521334,4.5,94,$,43.67142,-79.445947,Primrose Ave / Davenport Rd,43.67142,-79.445947,13
Dairy Freeze,burgers,43.6751174,-79.4548844,828.0712606,3.0,73,$,43.67142,-79.445947,Primrose Ave / Davenport Rd,43.67142,-79.445947,13
Marcello’s pizzeria,pizza,43.67783,-79.4425399,769.5753009,4.0,102,$$,43.67142,-79.445947,Primrose Ave / Davenport Rd,43.67142,-79.445947,13
Gaucho Pie,argentine,43.67104325,-79.43478607,898.6369769,4.5,9,no data,43.67142,-79.445947,Primrose Ave / Davenport Rd,43.67142,-79.445947,13
Kaito Sushi,sushi,43.67737,-79.44452,671.813579,3.5,32,no data,43.67142,-79.445947,Primrose Ave / Davenport Rd,43.67142,-79.445947,13
Koji Japanese Restaurant,sushi,43.66532471,-79.45280768,873.9979542,4.5,38,$$,43.67142,-79.445947,Primrose Ave / Davenport Rd,43.67142,-79.445947,13
Big Trouble Pizza,pizza,43.66968493,-79.4373848,715.1697408,5.0,4,no data,43.67142,-79.445947,Primrose Ave / Davenport Rd,43.67142,-79.445947,13
Burger Land,burgers,43.676041,-79.450698,646.471211,5.0,1,no data,43.67142,-79.445947,Primrose Ave / Davenport Rd,43.67142,-79.445947,13
Lucia,italian,43.66494,-79.45418,981.6022885,4.0,11,no data,43.67142,-79.445947,Primrose Ave / Davenport Rd,43.67142,-79.445947,13
DeSotos Eatery,gastropubs,43.6786263,-79.4396588,947.5439424,4.0,84,$$,43.67142,-79.445947,Primrose Ave / Davenport Rd,43.67142,-79.445947,13
Boo Radley's Junction Bar and Grill,bars,43.66614,-79.45028,690.4815139,3.5,46,$$,43.67142,-79.445947,Primrose Ave / Davenport Rd,43.67142,-79.445947,13
The Morning Star Restaurant,restaurants,43.66923,-79.4422,384.7334862,2.5,2,$,43.67142,-79.445947,Primrose Ave / Davenport Rd,43.67142,-79.445947,13
Hot Slice Pizza,pizza,43.67275,-79.441,421.3613671,0.0,0,no data,43.67142,-79.445947,Primrose Ave / Davenport Rd,43.67142,-79.445947,13
Barista & Chef,mediterranean,43.6794533,-79.4374528,1124.536457,4.5,53,$$,43.67142,-79.445947,Primrose Ave / Davenport Rd,43.67142,-79.445947,13
Mattachioni,italian,43.66487589,-79.45497255,1027.866947,4.0,45,$$,43.67142,-79.445947,Primrose Ave / Davenport Rd,43.67142,-79.445947,13
Frank’s Pizza House,pizza,43.67686,-79.44926,659.0933696,3.5,99,$$,43.67142,-79.445947,Primrose Ave / Davenport Rd,43.67142,-79.445947,13
Tuckshop Kitchen,sandwiches,43.66499,-79.45568,1062.84922,4.5,56,$,43.67142,-79.445947,Primrose Ave / Davenport Rd,43.67142,-79.445947,13
Colombian Street Food by Cookie Martinez,colombian,43.66532723,-79.45313432,890.6060362,4.5,2,no data,43.67142,-79.445947,Primrose Ave / Davenport Rd,43.67142,-79.445947,13
Taqueria Gus,mexican,43.66309,-79.43556,1247.16975,5.0,3,no data,43.67142,-79.445947,Primrose Ave / Davenport Rd,43.67142,-79.445947,13
Pizza e Pazzi,pizza,43.678,-79.44385893,750.6863489,4.0,90,$$,43.67142,-79.445947,Primrose Ave / Davenport Rd,43.67142,-79.445947,13
Rain Sushi,sushi,43.67597,-79.45069,646.0233045,4.5,6,no data,43.67142,-79.445947,Primrose Ave / Davenport Rd,43.67142,-79.445947,13
El Mae Restaurant,latin,43.677778,-79.4426067,756.2956743,0.0,0,no data,43.67142,-79.445947,Primrose Ave / Davenport Rd,43.67142,-79.445947,13
Lox + Schmear,bagels,43.67929,-79.43823,1060.46642,4.5,40,$,43.67142,-79.445947,Primrose Ave / Davenport Rd,43.67142,-79.445947,13
El Rancherito,colombian,43.6748467,-79.4578909,1033.412806,3.5,18,$,43.67142,-79.445947,Primrose Ave / Davenport Rd,43.67142,-79.445947,13
Jaclyn's,caribbean,43.66627,-79.31802,29.25726257,4.5,16,no data,43.666224,-79.317693,Queen St. E / Rhodes Ave.,43.666224,-79.317693,14
Casa Di Giorgios,italian,43.6668499,-79.31518,211.834095,4.0,75,$$,43.666224,-79.317693,Queen St. E / Rhodes Ave.,43.666224,-79.317693,14
Lake Inez,bars,43.67234,-79.32064,726.2105824,4.5,94,$$$,43.666224,-79.317693,Queen St. E / Rhodes Ave.,43.666224,-79.317693,14
Tulia Osteria,pizza,43.66487,-79.32425,553.9020761,5.0,1,no data,43.666224,-79.317693,Queen St. E / Rhodes Ave.,43.666224,-79.317693,14
Beach Club,seafood,43.6632065,-79.3100133,735.5028477,3.0,19,no data,43.666224,-79.317693,Queen St. E / Rhodes Ave.,43.666224,-79.317693,14
Betty’s East,salad,43.663455,-79.327992,884.1493841,4.0,5,no data,43.666224,-79.317693,Queen St. E / Rhodes Ave.,43.666224,-79.317693,14
The Burger's Priest,burgers,43.66669959,-79.3155846,177.6432598,3.5,507,$$,43.666224,-79.317693,Queen St. E / Rhodes Ave.,43.666224,-79.317693,14
O Sushi,sushi,43.66654,-79.31693,78.63482296,4.0,61,$$,43.666224,-79.317693,Queen St. E / Rhodes Ave.,43.666224,-79.317693,14
Le Conciliabule,bakeries,43.671365,-79.3272249,956.3312078,4.5,13,no data,43.666224,-79.317693,Queen St. E / Rhodes Ave.,43.666224,-79.317693,14
Puerto Bravo,mexican,43.67203,-79.32231,744.6803621,4.5,4,no data,43.666224,-79.317693,Queen St. E / Rhodes Ave.,43.666224,-79.317693,14
British Style Fish & Chips,fishnchips,43.66861,-79.31723,269.5177252,4.0,53,$,43.666224,-79.317693,Queen St. E / Rhodes Ave.,43.666224,-79.317693,14
Maru Japanese Bistro,japanese,43.66471996,-79.32426283,554.2860781,4.0,17,no data,43.666224,-79.317693,Queen St. E / Rhodes Ave.,43.666224,-79.317693,14
Burrito Bandidos,mexican,43.6665611,-79.3164215,98.63227407,3.5,58,$$,43.666224,-79.317693,Queen St. E / Rhodes Ave.,43.666224,-79.317693,14
Mattachioni,grocery,43.67264,-79.31973,728.47,4.5,5,no data,43.666224,-79.317693,Queen St. E / Rhodes Ave.,43.666224,-79.317693,14
Simple Coffee,cafes,43.6668164,-79.3156156,179.6109754,4.5,2,no data,43.666224,-79.317693,Queen St. E / Rhodes Ave.,43.666224,-79.317693,14
The Sidekick,cafes,43.6645889,-79.3251114,625.5297679,4.5,31,$,43.666224,-79.317693,Queen St. E / Rhodes Ave.,43.666224,-79.317693,14
Occasions Restaurant,greek,43.67338,-79.31823,795.2799228,4.0,46,$$,43.666224,-79.317693,Queen St. E / Rhodes Ave.,43.666224,-79.317693,14
Toto Sushi,japanese,43.672262,-79.3212267,729.0757804,4.5,32,no data,43.666224,-79.317693,Queen St. E / Rhodes Ave.,43.666224,-79.317693,14
Good Behaviour,sandwiches,43.67162641,-79.32564631,877.542005,4.5,11,no data,43.666224,-79.317693,Queen St. E / Rhodes Ave.,43.666224,-79.317693,14
GG's,burgers,43.6632065,-79.3100133,735.5028477,3.5,4,no data,43.666224,-79.317693,Queen St. E / Rhodes Ave.,43.666224,-79.317693,14
Sauvignon Bistro,newcanadian,43.668453,-79.307099,887.4319124,4.0,42,$$$,43.666224,-79.317693,Queen St. E / Rhodes Ave.,43.666224,-79.317693,14
Black Pony,cafes,43.67241,-79.3204,732.1834312,4.5,8,no data,43.666224,-79.317693,Queen St. E / Rhodes Ave.,43.666224,-79.317693,14
Shawarma Day,mediterranean,43.666463,-79.316964,63.94619848,0.0,0,no data,43.666224,-79.317693,Queen St. E / Rhodes Ave.,43.666224,-79.317693,14
Shawarma Day,mediterranean,43.666463,-79.316964,63.94619848,0.0,0,no data,43.666224,-79.317693,Queen St. E / Rhodes Ave.,43.666224,-79.317693,14
Maha's,egyptian,43.67167,-79.32853,1066.412136,4.0,599,$$,43.666224,-79.317693,Queen St. E / Rhodes Ave.,43.666224,-79.317693,14
Lazy Daisy's Cafe,cafes,43.6726699,-79.3194,735.3127654,4.0,152,$$,43.666224,-79.317693,Queen St. E / Rhodes Ave.,43.666224,-79.317693,14
BIRDIES Fried Chicken,chickenshop,43.6732457,-79.3191636,789.4736394,4.5,10,no data,43.666224,-79.317693,Queen St. E / Rhodes Ave.,43.666224,-79.317693,14
Hastings Snack Bar,polish,43.66381,-79.32893,946.0044248,4.5,42,$,43.666224,-79.317693,Queen St. E / Rhodes Ave.,43.666224,-79.317693,14
Chick-N-Joy,hotdogs,43.66509,-79.32132,319.9391251,4.0,57,$,43.666224,-79.317693,Queen St. E / Rhodes Ave.,43.666224,-79.317693,14
Jules Bistro,bistros,43.66389,-79.32859,915.43535,3.5,31,no data,43.666224,-79.317693,Queen St. E / Rhodes Ave.,43.666224,-79.317693,14
Karma's Kitchen,himalayan,43.67183,-79.32305,755.6731487,4.0,62,$$,43.666224,-79.317693,Queen St. E / Rhodes Ave.,43.666224,-79.317693,14
The Thirsty Loon,bars,43.67239418,-79.31990607,708.8060407,4.0,1,no data,43.666224,-79.317693,Queen St. E / Rhodes Ave.,43.666224,-79.317693,14
McDonald's,hotdogs,43.6650808,-79.3192955,170.1876189,2.5,24,$,43.666224,-79.317693,Queen St. E / Rhodes Ave.,43.666224,-79.317693,14
Bombay Chowpatty,indpak,43.67198226,-79.32437406,835.902608,3.0,58,$,43.666224,-79.317693,Queen St. E / Rhodes Ave.,43.666224,-79.317693,14
Maestro Omar’s Gourmet Pizza,pizza,43.66906,-79.31196,560.694994,4.0,8,no data,43.666224,-79.317693,Queen St. E / Rhodes Ave.,43.666224,-79.317693,14
Pachira Asian Cuisine,chinese,43.66649,-79.31686,72.3806461,1.0,1,$,43.666224,-79.317693,Queen St. E / Rhodes Ave.,43.666224,-79.317693,14
Regency Restaurant,indpak,43.67201,-79.32238,747.3465997,4.0,79,$$,43.666224,-79.317693,Queen St. E / Rhodes Ave.,43.666224,-79.317693,14
Leela Indian Food Bar,indpak,43.6719741,-79.3243773,833.2911411,4.0,17,no data,43.666224,-79.317693,Queen St. E / Rhodes Ave.,43.666224,-79.317693,14
Desi Burger,hotdogs,43.6718199,-79.3247,839.9463247,4.0,16,no data,43.666224,-79.317693,Queen St. E / Rhodes Ave.,43.666224,-79.317693,14
The Famous Indian Cuisine,indpak,43.6721178,-79.32321958,791.8885778,4.0,66,$$,43.666224,-79.317693,Queen St. E / Rhodes Ave.,43.666224,-79.317693,14
JP Restaurant,pubs,43.67303,-79.31955,776.8618621,3.5,10,no data,43.666224,-79.317693,Queen St. E / Rhodes Ave.,43.666224,-79.317693,14
Lahore Chaat & Desi Burger House,pakistani,43.67188,-79.3246,845.6703369,4.0,16,$,43.666224,-79.317693,Queen St. E / Rhodes Ave.,43.666224,-79.317693,14
Mumbai Frankie,indpak,43.67196,-79.32433,833.2911411,0.0,0,no data,43.666224,-79.317693,Queen St. E / Rhodes Ave.,43.666224,-79.317693,14
Lahore Tikka House,halal,43.67148,-79.32451,802.9975418,3.5,544,$$,43.666224,-79.317693,Queen St. E / Rhodes Ave.,43.666224,-79.317693,14
Butter Chicken Roti,indpak,43.66639729,-79.3168252,72.41293906,2.5,13,no data,43.666224,-79.317693,Queen St. E / Rhodes Ave.,43.666224,-79.317693,14
The Social Gardener,vegan,43.6716439,-79.3253848,863.6850306,3.5,5,$,43.666224,-79.317693,Queen St. E / Rhodes Ave.,43.666224,-79.317693,14
Tea N Bannock,tradamerican,43.671182,-79.3273557,952.8708057,4.5,47,$$,43.666224,-79.317693,Queen St. E / Rhodes Ave.,43.666224,-79.317693,14
Sushi On Gerrard,sushi,43.670655,-79.328144,976.1584531,0.0,0,no data,43.666224,-79.317693,Queen St. E / Rhodes Ave.,43.666224,-79.317693,14
Motimahal,indpak,43.6723799,-79.32265,790.1981674,3.5,112,$,43.666224,-79.317693,Queen St. E / Rhodes Ave.,43.666224,-79.317693,14
Udupi Palace,indpak,43.67273,-79.3210299,776.9763783,3.5,208,$$,43.666224,-79.317693,Queen St. E / Rhodes Ave.,43.666224,-79.317693,14
Richmond Station,newcanadian,43.6513729,-79.379285,292.6389211,4.5,906,$$$,43.653236,-79.376716,Bond St / Queen St E,43.653236,-79.376716,0
The Rabbit Hole,gastropubs,43.64995,-79.37976,426.2887524,4.0,36,no data,43.653236,-79.376716,Bond St / Queen St E,43.653236,-79.376716,0
Mogouyan Hand-Pulled Noodles,noodles,43.65573,-79.38449,681.0174839,4.5,66,$$,43.653236,-79.376716,Bond St / Queen St E,43.653236,-79.376716,0
Cafe Oro Di Napoli,pizza,43.65142571,-79.3721592,418.2400801,4.5,97,$$,43.653236,-79.376716,Bond St / Queen St E,43.653236,-79.376716,0
Katsuya,japanese,43.65995,-79.37882,768.495745,4.5,497,$$,43.653236,-79.376716,Bond St / Queen St E,43.653236,-79.376716,0
Amano Trattoria,italian,43.64778,-79.37319,646.7952231,4.5,24,no data,43.653236,-79.376716,Bond St / Queen St E,43.653236,-79.376716,0
Pearl Diver,seafood,43.65163,-79.37375,300.7711619,4.0,629,$$,43.653236,-79.376716,Bond St / Queen St E,43.653236,-79.376716,0
Haidilao Hot Pot,chinese,43.65463298,-79.379839,295.3926549,5.0,33,no data,43.653236,-79.376716,Bond St / Queen St E,43.653236,-79.376716,0
Beerbistro,bistros,43.64946713,-79.37716965,420.6646117,4.0,681,$$,43.653236,-79.376716,Bond St / Queen St E,43.653236,-79.376716,0
The Senator,breakfast_brunch,43.65574,-79.37896,334.0862516,4.0,492,$$,43.653236,-79.376716,Bond St / Queen St E,43.653236,-79.376716,0
Som Tum Jinda,thai,43.66019851,-79.3782113,783.484486,5.0,8,no data,43.653236,-79.376716,Bond St / Queen St E,43.653236,-79.376716,0
Bob's Bulgogi,korean,43.652139,-79.377507,137.5833836,4.0,89,$,43.653236,-79.376716,Bond St / Queen St E,43.653236,-79.376716,0
Hendriks Restaurant & Bar,tradamerican,43.653501,-79.380048,269.6830053,4.0,116,$$$,43.653236,-79.376716,Bond St / Queen St E,43.653236,-79.376716,0
The Carbon Bar,bbq,43.653088,-79.374829,151.1124955,4.0,419,$$$,43.653236,-79.376716,Bond St / Queen St E,43.653236,-79.376716,0
Laylak Lebanese Cuisine,lebanese,43.65070215,-79.3761808,285.0219285,4.5,10,no data,43.653236,-79.376716,Bond St / Queen St E,43.653236,-79.376716,0
Hana Don,japanese,43.65572,-79.38454,690.5955016,4.5,16,no data,43.653236,-79.376716,Bond St / Queen St E,43.653236,-79.376716,0
Twilight Cafe,cafes,43.65552,-79.37961,347.9538417,4.0,9,no data,43.653236,-79.376716,Bond St / Queen St E,43.653236,-79.376716,0
King Taps,newcanadian,43.64863793,-79.3817439,651.9579259,4.0,400,$$,43.653236,-79.376716,Bond St / Queen St E,43.653236,-79.376716,0
Gyukatsu Kyoto Katsugyu,japanese,43.65687,-79.37616,412.2541837,4.0,156,$$,43.653236,-79.376716,Bond St / Queen St E,43.653236,-79.376716,0
Pai Northern Thai Kitchen,thai,43.64784,-79.38872,1133.079488,4.5,3475,$$,43.653236,-79.376716,Bond St / Queen St E,43.653236,-79.376716,0
KINKA IZAKAYA ORIGINAL,japanese,43.66042407,-79.37890046,818.3672641,4.0,1814,$$,43.653236,-79.376716,Bond St / Queen St E,43.653236,-79.376716,0
Cactus Club Cafe,cocktailbars,43.64950421,-79.38251803,624.5757407,4.0,603,$$,43.653236,-79.376716,Bond St / Queen St E,43.653236,-79.376716,0
George Restaurant,newcanadian,43.65337264,-79.37432933,192.6142793,4.5,298,$$$$,43.653236,-79.376716,Bond St / Queen St E,43.653236,-79.376716,0
Chefs Hall,food_court,43.6503522,-79.3837951,653.6126788,4.0,320,$$,43.653236,-79.376716,Bond St / Queen St E,43.653236,-79.376716,0
Carisma,italian,43.65032,-79.37596,331.2527023,4.0,200,$$$,43.653236,-79.376716,Bond St / Queen St E,43.653236,-79.376716,0
Moon Palace,seafood,43.6561951,-79.38240341,563.5811522,4.0,60,no data,43.653236,-79.376716,Bond St / Queen St E,43.653236,-79.376716,0
Gyu-Kaku Japanese BBQ,japanese,43.6515,-79.37482,233.7895351,4.0,206,$$$,43.653236,-79.376716,Bond St / Queen St E,43.653236,-79.376716,0
Hokkaido Ramen Santouka,ramen,43.65632173,-79.37749958,348.8602506,4.0,896,$$,43.653236,-79.376716,Bond St / Queen St E,43.653236,-79.376716,0
Adobar,filipino,43.65738,-79.37396,508.7732463,5.0,5,no data,43.653236,-79.376716,Bond St / Queen St E,43.653236,-79.376716,0
Grandma Loves You,hotdog,43.65030223,-79.3839517,667.3189498,4.5,11,no data,43.653236,-79.376716,Bond St / Queen St E,43.653236,-79.376716,0
Egg Club,coffee,43.65655,-79.37793,377.4746269,4.5,134,$,43.653236,-79.376716,Bond St / Queen St E,43.653236,-79.376716,0
The Queen And Beaver Public House,pubs,43.65734,-79.38334,699.7921069,4.0,414,$$,43.653236,-79.376716,Bond St / Queen St E,43.653236,-79.376716,0
Trattoria Mercatto,italian,43.65367,-79.38007,285.8956603,3.5,236,$$,43.653236,-79.376716,Bond St / Queen St E,43.653236,-79.376716,0
Horangee Sikdang,korean,43.660605,-79.382602,946.3747857,4.5,42,no data,43.653236,-79.376716,Bond St / Queen St E,43.653236,-79.376716,0
11:59 Bar:Café,cocktailbars,43.65048542,-79.38199129,523.1427125,4.0,4,no data,43.653236,-79.376716,Bond St / Queen St E,43.653236,-79.376716,0
Piano Piano,pizza,43.64897516,-79.3746921,500.9842218,4.0,29,no data,43.653236,-79.376716,Bond St / Queen St E,43.653236,-79.376716,0
Trios Bistro,newcanadian,43.6545725,-79.3830233,528.7489596,4.0,22,$$,43.653236,-79.376716,Bond St / Queen St E,43.653236,-79.376716,0
Teller's Bar and Lounge,international,43.64882,-79.37805,500.252004,4.5,5,$$,43.653236,-79.376716,Bond St / Queen St E,43.653236,-79.376716,0
Woods Restaurant & Bar,newcanadian,43.6489963,-79.3750324,490.5066983,4.0,96,$$$,43.653236,-79.376716,Bond St / Queen St E,43.653236,-79.376716,0
GB Hand-pulled Noodles,chinese,43.65669,-79.38385,678.9205137,4.0,581,$$,43.653236,-79.376716,Bond St / Queen St E,43.653236,-79.376716,0
Mado Yonge,turkish,43.651179,-79.379058,297.1750288,4.0,16,no data,43.653236,-79.376716,Bond St / Queen St E,43.653236,-79.376716,0
Liko's Hawaiian BBQ,foodtrucks,43.6516,-79.38331,529.9998333,4.0,4,no data,43.653236,-79.376716,Bond St / Queen St E,43.653236,-79.376716,0
Daldongnae Korean BBQ - Dundas Square,korean,43.658244,-79.381345,672.7241533,4.5,11,no data,43.653236,-79.376716,Bond St / Queen St E,43.653236,-79.376716,0
Congee Queen,cantonese,43.658302,-79.381986,705.0325249,4.0,48,$$,43.653236,-79.376716,Bond St / Queen St E,43.653236,-79.376716,0
Library Bar,lounges,43.6461717,-79.3811365,862.2803532,4.0,128,$$$,43.653236,-79.376716,Bond St / Queen St E,43.653236,-79.376716,0
Fusaro's,italian,43.65341,-79.36956,573.7240213,4.0,92,$$,43.653236,-79.376716,Bond St / Queen St E,43.653236,-79.376716,0
Terroni,italian,43.6508,-79.3756,282.6465757,3.5,790,$$,43.653236,-79.376716,Bond St / Queen St E,43.653236,-79.376716,0
The Poke Box,salad,43.6505,-79.37657,321.8673123,4.5,180,$$,43.653236,-79.376716,Bond St / Queen St E,43.653236,-79.376716,0
Vietlicious Toronto,vietnamese,43.65733983,-79.3810403,573.8117499,4.5,5,no data,43.653236,-79.376716,Bond St / Queen St E,43.653236,-79.376716,0
FAMO Sandwiches,sandwiches,43.65404,-79.36956,590.0170074,4.5,34,$$,43.653236,-79.376716,Bond St / Queen St E,43.653236,-79.376716,0
Kintaro Izakaya,japanese,43.66417,-79.38006,52.83519431,4.0,246,$$,43.663722,-79.380288,Church St / Alexander St,43.663722,-79.380288,12
Horangee Sikdang,korean,43.660605,-79.382602,393.4154721,4.5,42,no data,43.663722,-79.380288,Church St / Alexander St,43.663722,-79.380288,12
Katsuya,japanese,43.65995,-79.37882,432.975108,4.5,497,$$,43.663722,-79.380288,Church St / Alexander St,43.663722,-79.380288,12
Som Tum Jinda,thai,43.66019851,-79.3782113,425.92144,5.0,8,no data,43.663722,-79.380288,Church St / Alexander St,43.663722,-79.380288,12
Lao Lao Bar,laotian,43.665799,-79.385537,489.1168824,4.5,45,no data,43.663722,-79.380288,Church St / Alexander St,43.663722,-79.380288,12
Hair of the Dog,pubs,43.66294682,-79.37959287,102.7436094,4.0,369,$$,43.663722,-79.380288,Church St / Alexander St,43.663722,-79.380288,12
KINKA IZAKAYA ORIGINAL,japanese,43.66042407,-79.37890046,383.322571,4.0,1814,$$,43.663722,-79.380288,Church St / Alexander St,43.663722,-79.380288,12
Sinjeon Topokki,korean,43.66115,-79.37869,309.7401158,4.5,8,no data,43.663722,-79.380288,Church St / Alexander St,43.663722,-79.380288,12
Afuri,ramen,43.66272786,-79.37943784,129.9860207,4.0,22,no data,43.663722,-79.380288,Church St / Alexander St,43.663722,-79.380288,12
Sanuki Udon,japanese,43.66162,-79.38153,257.4529509,4.0,26,no data,43.663722,-79.380288,Church St / Alexander St,43.663722,-79.380288,12
Pocha 1989,korean,43.66531,-79.38099,176.3187909,3.5,21,no data,43.663722,-79.380288,Church St / Alexander St,43.663722,-79.380288,12
Loaded Pierogi,bars,43.66470441,-79.38065586,113.1754124,4.0,28,$$,43.663722,-79.380288,Church St / Alexander St,43.663722,-79.380288,12
Si Lom Thai Bistro,thai,43.66503,-79.38082,150.8469389,4.0,200,$$,43.663722,-79.380288,Church St / Alexander St,43.663722,-79.380288,12
Gurume Sushi,sushi,43.66139146,-79.38099527,265.3156091,5.0,53,no data,43.663722,-79.380288,Church St / Alexander St,43.663722,-79.380288,12
Mogouyan Hand-Pulled Noodles,noodles,43.65573,-79.38449,954.1351089,4.5,66,$$,43.663722,-79.380288,Church St / Alexander St,43.663722,-79.380288,12
Egg Club Wellesley,breakfast_brunch,43.6642,-79.38389,305.472054,4.5,39,$,43.663722,-79.380288,Church St / Alexander St,43.663722,-79.380288,12
Mabu Generation,taiwanese,43.66509562,-79.38482992,395.9857807,4.0,54,$$,43.663722,-79.380288,Church St / Alexander St,43.663722,-79.380288,12
The Cherie  Bistro,italian,43.66512697,-79.3808928,163.624671,4.0,25,no data,43.663722,-79.380288,Church St / Alexander St,43.663722,-79.380288,12
The Bar Jokbal Night Market,korean,43.667725,-79.385608,611.5800533,4.5,4,no data,43.663722,-79.380288,Church St / Alexander St,43.663722,-79.380288,12
Dakgogi,korean,43.66502939,-79.3832693,280.4325332,3.0,37,$$,43.663722,-79.380288,Church St / Alexander St,43.663722,-79.380288,12
Soy Boys,vegan,43.66447,-79.38004,79.47181056,4.5,9,no data,43.663722,-79.380288,Church St / Alexander St,43.663722,-79.380288,12
Torch Pressed Sushi,japanese,43.66590932,-79.38082304,246.9970012,4.5,73,$$,43.663722,-79.380288,Church St / Alexander St,43.663722,-79.380288,12
Stuu Stuu,japanese,43.66607425,-79.3809316,266.6320953,5.0,2,no data,43.663722,-79.380288,Church St / Alexander St,43.663722,-79.380288,12
Koyoi Restaurant & Bar,japanese,43.66667863,-79.38546762,530.7224978,4.0,135,$$,43.663722,-79.380288,Church St / Alexander St,43.663722,-79.380288,12
Mogouyan Hand-Pulled Noodles,noodles,43.66943,-79.38671,815.9742293,4.0,89,$$,43.663722,-79.380288,Church St / Alexander St,43.663722,-79.380288,12
The Carlton Restaurant,newcanadian,43.6617125,-79.3811043,232.8943221,4.5,7,no data,43.663722,-79.380288,Church St / Alexander St,43.663722,-79.380288,12
Storm Crow Manor,bars,43.66674896,-79.38164312,353.7921306,4.0,147,$$,43.663722,-79.380288,Church St / Alexander St,43.663722,-79.380288,12
The Churchmouse: A Firkin Pub,pubs,43.66461125,-79.38014651,99.53303049,3.5,84,$$,43.663722,-79.380288,Church St / Alexander St,43.663722,-79.380288,12
Okonomi House Restaurant,japanese,43.66831107,-79.38713375,750.7287906,4.0,316,$,43.663722,-79.380288,Church St / Alexander St,43.663722,-79.380288,12
Hotopia,chinese,43.66138,-79.3804,254.9499522,3.5,28,no data,43.663722,-79.380288,Church St / Alexander St,43.663722,-79.380288,12
Darvish Restaurant,persian,43.66337,-79.38412,309.6541388,4.0,118,$$,43.663722,-79.380288,Church St / Alexander St,43.663722,-79.380288,12
Sang-Ji Fried Bao,dumplings,43.6686,-79.385637,696.2390903,4.5,10,no data,43.663722,-79.380288,Church St / Alexander St,43.663722,-79.380288,12
Tokyo Kitchen,japanese,43.66909401,-79.38511244,712.3206557,4.0,168,$$,43.663722,-79.380288,Church St / Alexander St,43.663722,-79.380288,12
BOKU,ramen,43.6640394,-79.3844623,343.2818621,3.5,31,no data,43.663722,-79.380288,Church St / Alexander St,43.663722,-79.380288,12
Sunny Taiwanese Breakfast,breakfast_brunch,43.663856,-79.386461,493.3047865,4.0,1,no data,43.663722,-79.380288,Church St / Alexander St,43.663722,-79.380288,12
The Senator,breakfast_brunch,43.65574,-79.37896,892.664212,4.0,492,$$,43.663722,-79.380288,Church St / Alexander St,43.663722,-79.380288,12
Globol Restaurants,indpak,43.66206,-79.38003,170.265756,5.0,1,no data,43.663722,-79.380288,Church St / Alexander St,43.663722,-79.380288,12
Edomae Kiyomi,sushi,43.66012,-79.37813,426.9042892,4.0,30,$$$$,43.663722,-79.380288,Church St / Alexander St,43.663722,-79.380288,12
Daldongnae Korean BBQ - Dundas Square,korean,43.658244,-79.381345,620.9201925,4.5,11,no data,43.663722,-79.380288,Church St / Alexander St,43.663722,-79.380288,12
Congee Queen,cantonese,43.658302,-79.381986,617.9606273,4.0,48,$$,43.663722,-79.380288,Church St / Alexander St,43.663722,-79.380288,12
Gyukatsu Kyoto Katsugyu,japanese,43.65687,-79.37616,823.0274131,4.0,156,$$,43.663722,-79.380288,Church St / Alexander St,43.663722,-79.380288,12
More Natas Please,desserts,43.66950221,-79.38661024,819.5748772,4.0,9,no data,43.663722,-79.380288,Church St / Alexander St,43.663722,-79.380288,12
Mr.Tonkatsu,japanese,43.66434,-79.38454,346.8242765,4.0,81,$$,43.663722,-79.380288,Church St / Alexander St,43.663722,-79.380288,12
The Queen And Beaver Public House,pubs,43.65734,-79.38334,750.2916296,4.0,414,$$,43.663722,-79.380288,Church St / Alexander St,43.663722,-79.380288,12
Maison Selby,french,43.67127278,-79.37660005,890.4682378,4.0,114,no data,43.663722,-79.380288,Church St / Alexander St,43.663722,-79.380288,12
Miss Fu In Chengdu,chinese,43.66748,-79.38535,588.1784617,4.0,8,no data,43.663722,-79.380288,Church St / Alexander St,43.663722,-79.380288,12
O'Grady's Restaurant,newcanadian,43.66446985,-79.3806803,88.94312095,3.0,133,$$,43.663722,-79.380288,Church St / Alexander St,43.663722,-79.380288,12
Super Chicken,burgers,43.66627966,-79.38530067,493.4137014,5.0,1,no data,43.663722,-79.380288,Church St / Alexander St,43.663722,-79.380288,12
Bocconcini Toronto,pizza,43.6603,-79.37748,448.7980885,4.5,24,no data,43.663722,-79.380288,Church St / Alexander St,43.663722,-79.380288,12
Four Four South Village,taiwanese,43.66228877,-79.38363393,312.790257,3.5,118,no data,43.663722,-79.380288,Church St / Alexander St,43.663722,-79.380288,12
Mogouyan Hand-Pulled Noodles,noodles,43.65573,-79.38449,442.3264604,4.5,66,$$,43.657763,-79.389165,University Ave / Gerrard St W (East Side),43.657763,-79.389165,0
Yuugi Izakaya,japanese,43.65574,-79.39382,436.7510328,4.5,83,no data,43.657763,-79.389165,University Ave / Gerrard St W (East Side),43.657763,-79.389165,0
Hana Don,japanese,43.65572,-79.38454,432.7536684,4.5,16,no data,43.657763,-79.389165,University Ave / Gerrard St W (East Side),43.657763,-79.389165,0
Horangee Sikdang,korean,43.660605,-79.382602,615.3108818,4.5,42,no data,43.657763,-79.389165,University Ave / Gerrard St W (East Side),43.657763,-79.389165,0
Katsuya,japanese,43.65995,-79.37882,871.007125,4.5,497,$$,43.657763,-79.389165,University Ave / Gerrard St W (East Side),43.657763,-79.389165,0
The Queen And Beaver Public House,pubs,43.65734,-79.38334,473.2283897,4.0,414,$$,43.657763,-79.389165,University Ave / Gerrard St W (East Side),43.657763,-79.389165,0
Soya Mandarin Kitchen,chinese,43.65588,-79.39329,393.3228045,4.0,38,no data,43.657763,-79.389165,University Ave / Gerrard St W (East Side),43.657763,-79.389165,0
Gyubee Japanese Grill - Dundas,japanese,43.6551427,-79.3857634,393.410996,4.5,210,$$$,43.657763,-79.389165,University Ave / Gerrard St W (East Side),43.657763,-79.389165,0
Dzo Viet Eatery,vietnamese,43.65445,-79.39178,425.6748377,4.0,150,$$,43.657763,-79.389165,University Ave / Gerrard St W (East Side),43.657763,-79.389165,0
Dear Saigon,vietnamese,43.65873314,-79.39439,433.9528762,4.0,18,no data,43.657763,-79.389165,University Ave / Gerrard St W (East Side),43.657763,-79.389165,0
Omai Restaurant,japanese,43.6561,-79.39234,337.243246,4.0,126,$$,43.657763,-79.389165,University Ave / Gerrard St W (East Side),43.657763,-79.389165,0
Manpuku Japanese Eatery,japanese,43.65406,-79.39101,476.0999776,4.0,517,$,43.657763,-79.389165,University Ave / Gerrard St W (East Side),43.657763,-79.389165,0
Som Tum Jinda,thai,43.66019851,-79.3782113,921.8490398,5.0,8,no data,43.657763,-79.389165,University Ave / Gerrard St W (East Side),43.657763,-79.389165,0
Holy Cow Japanese Steakhouse,steak,43.64993,-79.39145,876.7258424,4.5,158,$$$,43.657763,-79.389165,University Ave / Gerrard St W (East Side),43.657763,-79.389165,0
KINKA IZAKAYA ORIGINAL,japanese,43.66042407,-79.37890046,877.1467902,4.0,1814,$$,43.657763,-79.389165,University Ave / Gerrard St W (East Side),43.657763,-79.389165,0
Moon Palace,seafood,43.6561951,-79.38240341,571.2114797,4.0,60,no data,43.657763,-79.389165,University Ave / Gerrard St W (East Side),43.657763,-79.389165,0
Richmond Station,newcanadian,43.6513729,-79.379285,1066.148496,4.5,906,$$$,43.657763,-79.389165,University Ave / Gerrard St W (East Side),43.657763,-79.389165,0
GB Hand-pulled Noodles,chinese,43.65669,-79.38385,456.0417772,4.0,581,$$,43.657763,-79.389165,University Ave / Gerrard St W (East Side),43.657763,-79.389165,0
Yubu,sushi,43.65867999,-79.39508367,486.9302847,4.0,9,no data,43.657763,-79.389165,University Ave / Gerrard St W (East Side),43.657763,-79.389165,0
Lao Lao Bar,laotian,43.665799,-79.385537,932.2753833,4.5,45,no data,43.657763,-79.389165,University Ave / Gerrard St W (East Side),43.657763,-79.389165,0
Mom's Pan-Fried Buns,chinese,43.65532939,-79.38661928,339.3661423,4.0,18,no data,43.657763,-79.389165,University Ave / Gerrard St W (East Side),43.657763,-79.389165,0
The Senator,breakfast_brunch,43.65574,-79.37896,848.4784848,4.0,492,$$,43.657763,-79.389165,University Ave / Gerrard St W (East Side),43.657763,-79.389165,0
Congee Queen,cantonese,43.658302,-79.381986,580.6265471,4.0,48,$$,43.657763,-79.389165,University Ave / Gerrard St W (East Side),43.657763,-79.389165,0
bb.q Chicken,korean,43.65728792,-79.38379124,435.5192889,4.0,19,$$,43.657763,-79.389165,University Ave / Gerrard St W (East Side),43.657763,-79.389165,0
Brown Donkatsu,korean,43.65561316,-79.3848772,419.6819547,4.5,20,no data,43.657763,-79.389165,University Ave / Gerrard St W (East Side),43.657763,-79.389165,0
Rikki Tikki,indpak,43.6540813,-79.4014858,1072.414516,5.0,25,no data,43.657763,-79.389165,University Ave / Gerrard St W (East Side),43.657763,-79.389165,0
Sansotei Ramen,ramen,43.655,-79.38643,376.0641586,4.0,941,$$,43.657763,-79.389165,University Ave / Gerrard St W (East Side),43.657763,-79.389165,0
Daldongnae Korean BBQ - Dundas Square,korean,43.658244,-79.381345,619.76929,4.5,11,no data,43.657763,-79.389165,University Ave / Gerrard St W (East Side),43.657763,-79.389165,0
Smoque N' Bones,bbq,43.65611292,-79.39374324,411.4815784,4.0,5,no data,43.657763,-79.389165,University Ave / Gerrard St W (East Side),43.657763,-79.389165,0
Butter & Blue,cafes,43.65617849,-79.39262932,329.7187713,4.5,11,no data,43.657763,-79.389165,University Ave / Gerrard St W (East Side),43.657763,-79.389165,0
Sanuki Udon,japanese,43.66162,-79.38153,740.3221089,4.0,26,no data,43.657763,-79.389165,University Ave / Gerrard St W (East Side),43.657763,-79.389165,0
Haidilao Hot Pot,chinese,43.65463298,-79.379839,827.0627336,5.0,33,no data,43.657763,-79.389165,University Ave / Gerrard St W (East Side),43.657763,-79.389165,0
Hong Kong Bistro Cafe,chinese,43.65348,-79.39686,783.4715684,4.0,119,$,43.657763,-79.389165,University Ave / Gerrard St W (East Side),43.657763,-79.389165,0
Three Kingdoms Pizza,pizza,43.6560678,-79.3924699,325.9130386,4.5,9,no data,43.657763,-79.389165,University Ave / Gerrard St W (East Side),43.657763,-79.389165,0
Est West Cafe,sandwiches,43.65901,-79.39115,187.2454826,4.0,62,$,43.657763,-79.389165,University Ave / Gerrard St W (East Side),43.657763,-79.389165,0
The Poké Box,salad,43.6588089,-79.3909892,187.2454826,4.5,23,$$,43.657763,-79.389165,University Ave / Gerrard St W (East Side),43.657763,-79.389165,0
The Smith House,pizza,43.658894,-79.393786,394.8963501,5.0,1,no data,43.657763,-79.389165,University Ave / Gerrard St W (East Side),43.657763,-79.389165,0
Trios Bistro,newcanadian,43.6545725,-79.3830233,608.2661934,4.0,22,$$,43.657763,-79.389165,University Ave / Gerrard St W (East Side),43.657763,-79.389165,0
Yeah Yeah Thai,thai,43.655288,-79.399358,868.4641782,4.5,23,no data,43.657763,-79.389165,University Ave / Gerrard St W (East Side),43.657763,-79.389165,0
The Rabbit Hole,gastropubs,43.64995,-79.37976,1148.617851,4.0,36,no data,43.657763,-79.389165,University Ave / Gerrard St W (East Side),43.657763,-79.389165,0
Liko's Hawaiian BBQ,foodtrucks,43.6516,-79.38331,706.7296053,4.0,4,no data,43.657763,-79.389165,University Ave / Gerrard St W (East Side),43.657763,-79.389165,0
Artisan Plus,noodles,43.65578,-79.38444,446.7032105,4.0,59,$$,43.657763,-79.389165,University Ave / Gerrard St W (East Side),43.657763,-79.389165,0
A Bite of Sichuan,chinese,43.6560587,-79.3924699,326.4994782,4.0,11,no data,43.657763,-79.389165,University Ave / Gerrard St W (East Side),43.657763,-79.389165,0
Light Cafe,cafes,43.65594,-79.393,371.2777868,4.0,251,$$,43.657763,-79.389165,University Ave / Gerrard St W (East Side),43.657763,-79.389165,0
Wah Too Seafood Restaurant,seafood,43.6547399,-79.3872,370.261119,4.0,34,$$,43.657763,-79.389165,University Ave / Gerrard St W (East Side),43.657763,-79.389165,0
Yeondon Ball Katsu,korean,43.65477555,-79.3874906,358.4610395,4.0,7,no data,43.657763,-79.389165,University Ave / Gerrard St W (East Side),43.657763,-79.389165,0
Deer Garden Signatures,chinese,43.66024303,-79.38589945,380.8638441,3.5,17,no data,43.657763,-79.389165,University Ave / Gerrard St W (East Side),43.657763,-79.389165,0
Gurume Sushi,sushi,43.66139146,-79.38099527,771.173441,5.0,53,no data,43.657763,-79.389165,University Ave / Gerrard St W (East Side),43.657763,-79.389165,0
Patchmon's Thai Desserts & More,desserts,43.6542472,-79.3908683,414.2583953,4.5,45,$$,43.657763,-79.389165,University Ave / Gerrard St W (East Side),43.657763,-79.389165,0
Juicy Dumpling,dimsum,43.65252,-79.39854,962.4739445,4.0,626,$,43.657763,-79.389165,University Ave / Gerrard St W (East Side),43.657763,-79.389165,0
Mogouyan Hand-Pulled Noodles,noodles,43.65573,-79.38449,180.9763467,4.5,66,$$,43.656729,-79.382736,Edward St / Yonge St,43.656729,-79.382736,5
The Queen And Beaver Public House,pubs,43.65734,-79.38334,82.12766739,4.0,414,$$,43.656729,-79.382736,Edward St / Yonge St,43.656729,-79.382736,5
Hana Don,japanese,43.65572,-79.38454,184.9568038,4.5,16,no data,43.656729,-79.382736,Edward St / Yonge St,43.656729,-79.382736,5
Horangee Sikdang,korean,43.660605,-79.382602,431.1258446,4.5,42,no data,43.656729,-79.382736,Edward St / Yonge St,43.656729,-79.382736,5
Moon Palace,seafood,43.6561951,-79.38240341,65.11778745,4.0,60,no data,43.656729,-79.382736,Edward St / Yonge St,43.656729,-79.382736,5
Katsuya,japanese,43.65995,-79.37882,481.8277559,4.5,497,$$,43.656729,-79.382736,Edward St / Yonge St,43.656729,-79.382736,5
Richmond Station,newcanadian,43.6513729,-79.379285,657.1055129,4.5,906,$$$,43.656729,-79.382736,Edward St / Yonge St,43.656729,-79.382736,5
Som Tum Jinda,thai,43.66019851,-79.3782113,530.4017168,5.0,8,no data,43.656729,-79.382736,Edward St / Yonge St,43.656729,-79.382736,5
Haidilao Hot Pot,chinese,43.65463298,-79.379839,329.603054,5.0,33,no data,43.656729,-79.382736,Edward St / Yonge St,43.656729,-79.382736,5
KINKA IZAKAYA ORIGINAL,japanese,43.66042407,-79.37890046,513.8295418,4.0,1814,$$,43.656729,-79.382736,Edward St / Yonge St,43.656729,-79.382736,5
The Senator,breakfast_brunch,43.65574,-79.37896,320.2991263,4.0,492,$$,43.656729,-79.382736,Edward St / Yonge St,43.656729,-79.382736,5
The Rabbit Hole,gastropubs,43.64995,-79.37976,782.5187075,4.0,36,no data,43.656729,-79.382736,Edward St / Yonge St,43.656729,-79.382736,5
Firefly Burger,burgers,43.65796885,-79.3813635,176.6297243,5.0,2,no data,43.656729,-79.382736,Edward St / Yonge St,43.656729,-79.382736,5
bb.q Chicken,korean,43.65728792,-79.38379124,105.2098834,4.0,19,$$,43.656729,-79.382736,Edward St / Yonge St,43.656729,-79.382736,5
Daldongnae Korean BBQ - Dundas Square,korean,43.658244,-79.381345,192.5612754,4.5,11,no data,43.656729,-79.382736,Edward St / Yonge St,43.656729,-79.382736,5
GB Hand-pulled Noodles,chinese,43.65669,-79.38385,78.48210547,4.0,581,$$,43.656729,-79.382736,Edward St / Yonge St,43.656729,-79.382736,5
Gyubee Japanese Grill - Dundas,japanese,43.6551427,-79.3857634,301.8531718,4.5,210,$$$,43.656729,-79.382736,Edward St / Yonge St,43.656729,-79.382736,5
Congee Queen,cantonese,43.658302,-79.381986,185.0234078,4.0,48,$$,43.656729,-79.382736,Edward St / Yonge St,43.656729,-79.382736,5
Twilight Cafe,cafes,43.65552,-79.37961,288.1211708,4.0,9,no data,43.656729,-79.382736,Edward St / Yonge St,43.656729,-79.382736,5
Trios Bistro,newcanadian,43.6545725,-79.3830233,240.9029416,4.0,22,$$,43.656729,-79.382736,Edward St / Yonge St,43.656729,-79.382736,5
Barberian's Steak House,steak,43.6576,-79.38212,108.2263612,4.0,320,$$$$,43.656729,-79.382736,Edward St / Yonge St,43.656729,-79.382736,5
Pai Northern Thai Kitchen,thai,43.64784,-79.38872,1095.591014,4.5,3475,$$,43.656729,-79.382736,Edward St / Yonge St,43.656729,-79.382736,5
Vietlicious Toronto,vietnamese,43.65733983,-79.3810403,152.3892934,4.5,5,no data,43.656729,-79.382736,Edward St / Yonge St,43.656729,-79.382736,5
JOEY Eaton Centre,newcanadian,43.6558709,-79.38200919,111.9070606,3.5,538,$$,43.656729,-79.382736,Edward St / Yonge St,43.656729,-79.382736,5
Hendriks Restaurant & Bar,tradamerican,43.653501,-79.380048,419.046462,4.0,116,$$$,43.656729,-79.382736,Edward St / Yonge St,43.656729,-79.382736,5
Gyukatsu Kyoto Katsugyu,japanese,43.65687,-79.37616,523.7207768,4.0,156,$$,43.656729,-79.382736,Edward St / Yonge St,43.656729,-79.382736,5
Adega Restaurante,portuguese,43.65732,-79.38323,75.92898881,4.0,161,$$$,43.656729,-79.382736,Edward St / Yonge St,43.656729,-79.382736,5
Sinjeon Topokki,korean,43.66115,-79.37869,587.9581234,4.5,8,no data,43.656729,-79.382736,Edward St / Yonge St,43.656729,-79.382736,5
Donatello Restaurant,italian,43.657425,-79.383474,97.54129104,4.0,186,$$$,43.656729,-79.382736,Edward St / Yonge St,43.656729,-79.382736,5
Dave's Hot Chicken,halal,43.65730383,-79.38145676,121.1460441,4.5,9,no data,43.656729,-79.382736,Edward St / Yonge St,43.656729,-79.382736,5
Sanuki Udon,japanese,43.66162,-79.38153,552.3501665,4.0,26,no data,43.656729,-79.382736,Edward St / Yonge St,43.656729,-79.382736,5
Gurume Sushi,sushi,43.66139146,-79.38099527,537.020256,5.0,53,no data,43.656729,-79.382736,Edward St / Yonge St,43.656729,-79.382736,5
Brown Donkatsu,korean,43.65561316,-79.3848772,212.2904367,4.5,20,no data,43.656729,-79.382736,Edward St / Yonge St,43.656729,-79.382736,5
Konjiki Ramen Downtown,ramen,43.65729,-79.38358,96.11052362,4.0,115,$$,43.656729,-79.382736,Edward St / Yonge St,43.656729,-79.382736,5
Artisan Plus,noodles,43.65578,-79.38444,176.9878041,4.0,59,$$,43.656729,-79.382736,Edward St / Yonge St,43.656729,-79.382736,5
Chefs Hall,food_court,43.6503522,-79.3837951,714.1682629,4.0,320,$$,43.656729,-79.382736,Edward St / Yonge St,43.656729,-79.382736,5
Egg Club,coffee,43.65655,-79.37793,396.3388766,4.5,134,$,43.656729,-79.382736,Edward St / Yonge St,43.656729,-79.382736,5
You Don Ya,japanese,43.6557138,-79.38412092,158.6079577,3.5,93,$$,43.656729,-79.382736,Edward St / Yonge St,43.656729,-79.382736,5
Shitamachi Tendon Akimitsu,japanese,43.65729,-79.38358,96.11052362,3.5,68,$$,43.656729,-79.382736,Edward St / Yonge St,43.656729,-79.382736,5
Hokkaido Ramen Santouka,ramen,43.65632173,-79.37749958,423.6890738,4.0,896,$$,43.656729,-79.382736,Edward St / Yonge St,43.656729,-79.382736,5
Mom's Pan-Fried Buns,chinese,43.65532939,-79.38661928,349.0248452,4.0,18,no data,43.656729,-79.382736,Edward St / Yonge St,43.656729,-79.382736,5
Liko's Hawaiian BBQ,foodtrucks,43.6516,-79.38331,413.4860881,4.0,4,no data,43.656729,-79.382736,Edward St / Yonge St,43.656729,-79.382736,5
Grandma Loves You,hotdog,43.65030223,-79.3839517,721.2853809,4.5,11,no data,43.656729,-79.382736,Edward St / Yonge St,43.656729,-79.382736,5
Adobar,filipino,43.65738,-79.37396,701.3337113,5.0,5,no data,43.656729,-79.382736,Edward St / Yonge St,43.656729,-79.382736,5
Sansotei Ramen,ramen,43.655,-79.38643,355.8693091,4.0,941,$$,43.656729,-79.382736,Edward St / Yonge St,43.656729,-79.382736,5
Trattoria Mercatto,italian,43.65367,-79.38007,372.0957703,3.5,236,$$,43.656729,-79.382736,Edward St / Yonge St,43.656729,-79.382736,5
Elm Street Italian Deli,delis,43.65757803,-79.38247092,96.78637316,4.5,29,no data,43.656729,-79.382736,Edward St / Yonge St,43.656729,-79.382736,5
Manpuku Japanese Eatery,japanese,43.65406,-79.39101,738.4851027,4.0,517,$,43.656729,-79.382736,Edward St / Yonge St,43.656729,-79.382736,5
Lao Lao Bar,laotian,43.665799,-79.385537,1031.553414,4.5,45,no data,43.656729,-79.382736,Edward St / Yonge St,43.656729,-79.382736,5
Cactus Club Cafe,cocktailbars,43.64950421,-79.38251803,803.5507344,4.0,603,$$,43.656729,-79.382736,Edward St / Yonge St,43.656729,-79.382736,5
Jin Dal Lae,korean,43.664166,-79.41517,45.70845779,4.5,115,$$,43.664467,-79.414783,Euclid Ave / Bloor St W,43.664467,-79.414783,14
Yummy Korean Food Restaurant,korean,43.66469,-79.4140199,62.04971462,4.0,275,$$,43.664467,-79.414783,Euclid Ave / Bloor St W,43.664467,-79.414783,14
Daldongnae Korean BBQ - Christie,korean,43.66434,-79.41566,75.10814858,4.5,92,$$$,43.664467,-79.414783,Euclid Ave / Bloor St W,43.664467,-79.414783,14
Paldo Gangsan,korean,43.664,-79.41743,224.8788973,4.5,86,$,43.664467,-79.414783,Euclid Ave / Bloor St W,43.664467,-79.414783,14
Korean Village Restaurant,korean,43.66461,-79.41444,28.68956625,4.0,428,$$,43.664467,-79.414783,Euclid Ave / Bloor St W,43.664467,-79.414783,14
Mapo Pocha Soju Bar,korean,43.6640448,-79.41676136,165.9159065,5.0,3,no data,43.664467,-79.414783,Euclid Ave / Bloor St W,43.664467,-79.414783,14
Her Chef,asianfusion,43.66457,-79.41292,147.5482433,4.5,63,$$,43.664467,-79.414783,Euclid Ave / Bloor St W,43.664467,-79.414783,14
Insomnia Restaurant & Lounge,lounges,43.665961,-79.411003,346.4745854,4.0,1020,$$,43.664467,-79.414783,Euclid Ave / Bloor St W,43.664467,-79.414783,14
MaMa Chef Korean Restaurant,korean,43.66444,-79.41534,47.32785108,4.0,68,$$,43.664467,-79.414783,Euclid Ave / Bloor St W,43.664467,-79.414783,14
Jjin Toast,korean,43.66532676,-79.41142268,286.7029355,5.0,23,no data,43.664467,-79.414783,Euclid Ave / Bloor St W,43.664467,-79.414783,14
Kimsoonrye Soonsal Chicken,korean,43.664715,-79.41408,62.04971462,5.0,2,no data,43.664467,-79.414783,Euclid Ave / Bloor St W,43.664467,-79.414783,14
Mapo Korean BBQ,bbq,43.6639096,-79.4177539,246.880548,4.0,67,$$,43.664467,-79.414783,Euclid Ave / Bloor St W,43.664467,-79.414783,14
Sunrise House,korean,43.66401,-79.41561,82.31401015,4.0,215,$$,43.664467,-79.414783,Euclid Ave / Bloor St W,43.664467,-79.414783,14
Snowday BingSu Cafe,coffee,43.66379289,-79.4166058,164.6719275,5.0,1,no data,43.664467,-79.414783,Euclid Ave / Bloor St W,43.664467,-79.414783,14
Rasa,newcanadian,43.6627752,-79.4039682,890.038831,4.5,327,$$,43.664467,-79.414783,Euclid Ave / Bloor St W,43.664467,-79.414783,14
Hancook Cheese Dakgalbi,korean,43.66457,-79.41304,133.9203127,4.0,84,$$,43.664467,-79.414783,Euclid Ave / Bloor St W,43.664467,-79.414783,14
Tacos El Asador,mexican,43.6636499,-79.41686,189.5653038,4.0,323,$,43.664467,-79.414783,Euclid Ave / Bloor St W,43.664467,-79.414783,14
Kintori Yakitori Izakaya,japanese,43.66419,-79.41632,129.981324,3.5,55,$$,43.664467,-79.414783,Euclid Ave / Bloor St W,43.664467,-79.414783,14
Buk Chang Dong Soon Tofu,korean,43.66363,-79.4169299,202.1350881,4.0,486,$$,43.664467,-79.414783,Euclid Ave / Bloor St W,43.664467,-79.414783,14
Hodo Kwaja,bakeries,43.66438,-79.41557,65.93742111,4.5,244,$,43.664467,-79.414783,Euclid Ave / Bloor St W,43.664467,-79.414783,14
Imonay House Restaurant,korean,43.6641195,-79.4158477,93.95575474,4.0,90,$$,43.664467,-79.414783,Euclid Ave / Bloor St W,43.664467,-79.414783,14
Clinton's,korean,43.663596,-79.417367,228.6401541,5.0,2,no data,43.664467,-79.414783,Euclid Ave / Bloor St W,43.664467,-79.414783,14
Damda Restaurant,korean,43.663966,-79.415548,80.46929245,4.5,14,no data,43.664467,-79.414783,Euclid Ave / Bloor St W,43.664467,-79.414783,14
Yupdduk Bloor,korean,43.66473,-79.4138,83.81367501,4.0,28,no data,43.664467,-79.414783,Euclid Ave / Bloor St W,43.664467,-79.414783,14
Kevin's Taiyaki,gourmet,43.66381,-79.41621,140.6504889,4.5,79,$,43.664467,-79.414783,Euclid Ave / Bloor St W,43.664467,-79.414783,14
C-Block Taiwanese Bento,taiwanese,43.664001,-79.41705,193.701126,4.5,6,no data,43.664467,-79.414783,Euclid Ave / Bloor St W,43.664467,-79.414783,14
Y Not Italian!,modern_european,43.66057485,-79.41484753,432.8182161,5.0,4,no data,43.664467,-79.414783,Euclid Ave / Bloor St W,43.664467,-79.414783,14
Lamhan,vietnamese,43.66342705,-79.41859509,327.7181327,4.0,5,no data,43.664467,-79.414783,Euclid Ave / Bloor St W,43.664467,-79.414783,14
Chung Chun Rice Dog,hotdog,43.66443,-79.41375,80.22528696,4.5,72,no data,43.664467,-79.414783,Euclid Ave / Bloor St W,43.664467,-79.414783,14
Ninetails Coffee Bar,coffee,43.66408,-79.41527,59.58399388,4.5,34,no data,43.664467,-79.414783,Euclid Ave / Bloor St W,43.664467,-79.414783,14
Mr.Tonkatsu,japanese,43.66541,-79.41074,336.9787433,4.0,193,$$,43.664467,-79.414783,Euclid Ave / Bloor St W,43.664467,-79.414783,14
El Pocho Antojitos Bar,bars,43.66963,-79.41338,585.5763101,4.5,84,$$,43.664467,-79.414783,Euclid Ave / Bloor St W,43.664467,-79.414783,14
Barrio Coreano,korean,43.66441194,-79.4151261,28.26881974,3.5,248,$$,43.664467,-79.414783,Euclid Ave / Bloor St W,43.664467,-79.414783,14
La Bella Managua,latin,43.66232,-79.42495,856.7195182,4.5,254,$$,43.664467,-79.414783,Euclid Ave / Bloor St W,43.664467,-79.414783,14
MamaDon,japanese,43.66484,-79.41336,122.3432453,3.5,5,no data,43.664467,-79.414783,Euclid Ave / Bloor St W,43.664467,-79.414783,14
Morellina’s,cafes,43.6672495,-79.41999879,521.286617,5.0,10,no data,43.664467,-79.414783,Euclid Ave / Bloor St W,43.664467,-79.414783,14
Poop Cafe,desserts,43.66411,-79.41674,165.1399099,3.0,276,$$,43.664467,-79.414783,Euclid Ave / Bloor St W,43.664467,-79.414783,14
Rustle & Still Café,coffee,43.66457,-79.41304,134.0006445,4.5,153,$,43.664467,-79.414783,Euclid Ave / Bloor St W,43.664467,-79.414783,14
Ave Maria Latin Café,coffee,43.6643105,-79.4143295,36.28999578,4.5,38,$,43.664467,-79.414783,Euclid Ave / Bloor St W,43.664467,-79.414783,14
Kimchi House,korean,43.66495,-79.41271,172.4401806,4.0,52,$$,43.664467,-79.414783,Euclid Ave / Bloor St W,43.664467,-79.414783,14
Szechuan Noodle Bowl,chinese,43.6653659,-79.4109774,322.0172006,4.5,5,no data,43.664467,-79.414783,Euclid Ave / Bloor St W,43.664467,-79.414783,14
The Korean Kitchen,korean,43.66353,-79.41738,235.2307238,3.5,33,$$,43.664467,-79.414783,Euclid Ave / Bloor St W,43.664467,-79.414783,14
Her Father's Cider Bar & Kitchen,gastropubs,43.66232,-79.40453,856.3421814,4.5,191,$$,43.664467,-79.414783,Euclid Ave / Bloor St W,43.664467,-79.414783,14
Korea House,korean,43.66421,-79.41625,122.6557715,3.5,61,$$,43.664467,-79.414783,Euclid Ave / Bloor St W,43.664467,-79.414783,14
Chantecler,french,43.66288005,-79.4222638,627.0868857,5.0,1,no data,43.664467,-79.414783,Euclid Ave / Bloor St W,43.664467,-79.414783,14
Napoli Centrale,italian,43.6695182,-79.4129745,580.1984958,4.5,64,$$,43.664467,-79.414783,Euclid Ave / Bloor St W,43.664467,-79.414783,14
Dessert Fox,desserts,43.6642522,-79.4146051,27.84339457,4.5,12,no data,43.664467,-79.414783,Euclid Ave / Bloor St W,43.664467,-79.414783,14
KINKA IZAKAYA ANNEX,japanese,43.665157,-79.410658,340.5592293,4.0,506,$$,43.664467,-79.414783,Euclid Ave / Bloor St W,43.664467,-79.414783,14
Owl of Minerva,korean,43.66398,-79.4175099,229.796282,3.5,118,$$,43.664467,-79.414783,Euclid Ave / Bloor St W,43.664467,-79.414783,14
Doo Roo Ae,korean,43.6639519,-79.4155197,80.73892603,3.5,85,$$,43.664467,-79.414783,Euclid Ave / Bloor St W,43.664467,-79.414783,14
Trattoria Nervosa,italian,43.67101,-79.39104,527.7014724,4.0,405,$$,43.675492,-79.388858,Yonge St / Aylmer Ave,43.675492,-79.388858,5
Mineral,noodles,43.67763,-79.38947,243.7455042,4.5,26,no data,43.675492,-79.388858,Yonge St / Aylmer Ave,43.675492,-79.388858,5
Grandma Loves You,sandwiches,43.677846,-79.39010811,280.3957015,5.0,75,$$,43.675492,-79.388858,Yonge St / Aylmer Ave,43.675492,-79.388858,5
Happy Burger,hotdog,43.6743209,-79.3880618,145.1123437,4.5,16,$$,43.675492,-79.388858,Yonge St / Aylmer Ave,43.675492,-79.388858,5
Mogouyan Hand-Pulled Noodles,noodles,43.66943,-79.38671,694.1564398,4.0,89,$$,43.675492,-79.388858,Yonge St / Aylmer Ave,43.675492,-79.388858,5
156 Cumberland,korean,43.67004,-79.3933,713.4391638,4.5,23,no data,43.675492,-79.388858,Yonge St / Aylmer Ave,43.675492,-79.388858,5
The Oxley,pubs,43.67059,-79.39304,643.569837,4.0,182,$$,43.675492,-79.388858,Yonge St / Aylmer Ave,43.675492,-79.388858,5
Black Camel,sandwiches,43.67712223,-79.38920971,183.466949,4.5,382,$,43.675492,-79.388858,Yonge St / Aylmer Ave,43.675492,-79.388858,5
The Rebel House,pubs,43.67763,-79.39008,259.1595253,3.5,123,$$,43.675492,-79.388858,Yonge St / Aylmer Ave,43.675492,-79.388858,5
PLANTA Yorkville,vegetarian,43.67028,-79.38945,588.9538906,4.0,507,$$,43.675492,-79.388858,Yonge St / Aylmer Ave,43.675492,-79.388858,5
Robot Boil House,seafood,43.67471,-79.38819,99.43293877,4.0,22,$$$,43.675492,-79.388858,Yonge St / Aylmer Ave,43.675492,-79.388858,5
Yuzuki,japanese,43.6713124,-79.3838651,619.5323315,4.5,43,no data,43.675492,-79.388858,Yonge St / Aylmer Ave,43.675492,-79.388858,5
Buca Yorkville,italian,43.67214,-79.3894,370.5835065,4.0,207,$$$,43.675492,-79.388858,Yonge St / Aylmer Ave,43.675492,-79.388858,5
Public School,cafes,43.6708779,-79.3845954,617.0601314,4.0,8,no data,43.675492,-79.388858,Yonge St / Aylmer Ave,43.675492,-79.388858,5
Cafe Landwer - Yonge & Bloor,breakfast_brunch,43.67028,-79.38553,634.9875142,4.0,74,$$,43.675492,-79.388858,Yonge St / Aylmer Ave,43.675492,-79.388858,5
Eataly Toronto,italian,43.66961542,-79.38879486,653.4652177,3.5,293,$$,43.675492,-79.388858,Yonge St / Aylmer Ave,43.675492,-79.388858,5
More Natas Please,desserts,43.66950221,-79.38661024,690.1319026,4.0,9,no data,43.675492,-79.388858,Yonge St / Aylmer Ave,43.675492,-79.388858,5
Poppadum,indpak,43.67246,-79.3879,345.3248751,5.0,6,no data,43.675492,-79.388858,Yonge St / Aylmer Ave,43.675492,-79.388858,5
Pantry,breakfast_brunch,43.67831695,-79.39019645,332.0509258,4.0,22,$$,43.675492,-79.388858,Yonge St / Aylmer Ave,43.675492,-79.388858,5
The MoMo House,himalayan,43.6703275,-79.3901571,583.6929316,4.0,27,no data,43.675492,-79.388858,Yonge St / Aylmer Ave,43.675492,-79.388858,5
Quanto Basta,italian,43.67874,-79.39051,384.336658,3.5,45,$$,43.675492,-79.388858,Yonge St / Aylmer Ave,43.675492,-79.388858,5
Portici,italian,43.67196,-79.39072,319.8847484,4.0,85,$$,43.675492,-79.388858,Yonge St / Aylmer Ave,43.675492,-79.388858,5
Okonomi House Restaurant,japanese,43.66831107,-79.38713375,810.4353273,4.0,316,$,43.675492,-79.388858,Yonge St / Aylmer Ave,43.675492,-79.388858,5
Skylight Rooftop Bar,desserts,43.67089267,-79.3845954,615.6956369,4.0,14,$$$$,43.675492,-79.388858,Yonge St / Aylmer Ave,43.675492,-79.388858,5
El Tenedor,spanish,43.67512,-79.38837,63.42564168,5.0,5,no data,43.675492,-79.388858,Yonge St / Aylmer Ave,43.675492,-79.388858,5
Osteria Giulia,italian,43.67431,-79.39668,635.1025893,4.5,32,$$$$,43.675492,-79.388858,Yonge St / Aylmer Ave,43.675492,-79.388858,5
The Bar Jokbal Night Market,korean,43.667725,-79.385608,905.9388532,4.5,4,no data,43.675492,-79.388858,Yonge St / Aylmer Ave,43.675492,-79.388858,5
Joso's,seafood,43.6751099,-79.39607,583.389244,4.5,172,$$$,43.675492,-79.388858,Yonge St / Aylmer Ave,43.675492,-79.388858,5
Clay Restaurant,newcanadian,43.66798,-79.39347,892.2696858,4.0,22,no data,43.675492,-79.388858,Yonge St / Aylmer Ave,43.675492,-79.388858,5
Sang-Ji Fried Bao,dumplings,43.6686,-79.385637,808.0658901,4.5,10,no data,43.675492,-79.388858,Yonge St / Aylmer Ave,43.675492,-79.388858,5
Kibo Secret Garden,japanese,43.6700657,-79.3932832,699.0594925,4.0,32,no data,43.675492,-79.388858,Yonge St / Aylmer Ave,43.675492,-79.388858,5
Avant Gout Restaurant,french,43.67864,-79.39045,371.3281811,4.0,21,no data,43.675492,-79.388858,Yonge St / Aylmer Ave,43.675492,-79.388858,5
Kiro Sushi,japanese,43.67226623,-79.38744119,376.3531023,4.0,81,$$,43.675492,-79.388858,Yonge St / Aylmer Ave,43.675492,-79.388858,5
Tokyo Kitchen,japanese,43.66909401,-79.38511244,772.5750936,4.0,168,$$,43.675492,-79.388858,Yonge St / Aylmer Ave,43.675492,-79.388858,5
Aburi Hana,sushi,43.67104,-79.392555,582.9283503,4.5,20,no data,43.675492,-79.388858,Yonge St / Aylmer Ave,43.675492,-79.388858,5
Rosedale Diner,diners,43.68036,-79.3912299,573.6968449,3.5,115,$$,43.675492,-79.388858,Yonge St / Aylmer Ave,43.675492,-79.388858,5
Ristorante Sotto Sotto,italian,43.67374,-79.39646,643.3016398,4.0,128,$$$,43.675492,-79.388858,Yonge St / Aylmer Ave,43.675492,-79.388858,5
Sorrel,mediterranean,43.6802406,-79.3911819,556.1184915,3.5,32,$$$,43.675492,-79.388858,Yonge St / Aylmer Ave,43.675492,-79.388858,5
Fieramosca,italian,43.66963,-79.39719,949.2637181,4.5,112,$$$,43.675492,-79.388858,Yonge St / Aylmer Ave,43.675492,-79.388858,5
Joni Restaurant,bistros,43.66919,-79.39471,851.8734647,4.0,16,no data,43.675492,-79.388858,Yonge St / Aylmer Ave,43.675492,-79.388858,5
D Azur,french,43.67162,-79.38971,423.4313026,4.0,1,no data,43.675492,-79.388858,Yonge St / Aylmer Ave,43.675492,-79.388858,5
RollStar Sushi,sushi,43.67466,-79.38876,92.56301505,4.5,18,no data,43.675492,-79.388858,Yonge St / Aylmer Ave,43.675492,-79.388858,5
Masaki Saito,japanese,43.67224,-79.39586,676.4883398,4.5,12,no data,43.675492,-79.388858,Yonge St / Aylmer Ave,43.675492,-79.388858,5
Kasa Moto,japanese,43.670608,-79.3927837,628.184752,3.5,263,$$$,43.675492,-79.388858,Yonge St / Aylmer Ave,43.675492,-79.388858,5
Lee Chen Bistro,dimsum,43.672372,-79.387436,365.2918516,3.5,174,$$,43.675492,-79.388858,Yonge St / Aylmer Ave,43.675492,-79.388858,5
Dalbam,korean,43.669914,-79.383017,778.0680471,5.0,1,no data,43.675492,-79.388858,Yonge St / Aylmer Ave,43.675492,-79.388858,5
Terroni,italian,43.68001128,-79.39051915,519.974337,3.0,321,$$$,43.675492,-79.388858,Yonge St / Aylmer Ave,43.675492,-79.388858,5
Café Boulud,cafes,43.6719213,-79.388922,397.0766469,3.5,276,$$$$,43.675492,-79.388858,Yonge St / Aylmer Ave,43.675492,-79.388858,5
Mi'hito Sushi Laboratory,sushi,43.67113783,-79.39445134,660.8912152,4.5,6,no data,43.675492,-79.388858,Yonge St / Aylmer Ave,43.675492,-79.388858,5
Bibab Express,sushi,43.67318344,-79.3881073,263.7041346,4.0,6,$,43.675492,-79.388858,Yonge St / Aylmer Ave,43.675492,-79.388858,5
Joso's,seafood,43.6751099,-79.39607,16.6254748,4.5,172,$$$,43.674991,-79.396273,Davenport Rd / Avenue Rd,43.674991,-79.396273,0
Osteria Giulia,italian,43.67431,-79.39668,78.9040944,4.5,32,$$$$,43.674991,-79.396273,Davenport Rd / Avenue Rd,43.674991,-79.396273,0
Trattoria Nervosa,italian,43.67101,-79.39104,605.7810658,4.0,405,$$,43.674991,-79.396273,Davenport Rd / Avenue Rd,43.674991,-79.396273,0
The Oxley,pubs,43.67059,-79.39304,553.9309747,4.0,182,$$,43.674991,-79.396273,Davenport Rd / Avenue Rd,43.674991,-79.396273,0
Fieramosca,italian,43.66963,-79.39719,610.7068918,4.5,112,$$$,43.674991,-79.396273,Davenport Rd / Avenue Rd,43.674991,-79.396273,0
Ristorante Sotto Sotto,italian,43.67374,-79.39646,140.9911194,4.0,128,$$$,43.674991,-79.396273,Davenport Rd / Avenue Rd,43.674991,-79.396273,0
156 Cumberland,korean,43.67004,-79.3933,609.7623594,4.5,23,no data,43.674991,-79.396273,Davenport Rd / Avenue Rd,43.674991,-79.396273,0
Grandma Loves You,sandwiches,43.677846,-79.39010811,588.7200096,5.0,75,$$,43.674991,-79.396273,Davenport Rd / Avenue Rd,43.674991,-79.396273,0
Playa Cabana,mexican,43.67595777,-79.40118402,409.3277198,4.0,474,$$,43.674991,-79.396273,Davenport Rd / Avenue Rd,43.674991,-79.396273,0
Pisac Peruvian Bistro,peruvian,43.67724,-79.39836,303.3616474,4.5,26,no data,43.674991,-79.396273,Davenport Rd / Avenue Rd,43.674991,-79.396273,0
Clay Restaurant,newcanadian,43.66798,-79.39347,806.9815273,4.0,22,no data,43.674991,-79.396273,Davenport Rd / Avenue Rd,43.674991,-79.396273,0
Masaki Saito,japanese,43.67224,-79.39586,307.7601329,4.5,12,no data,43.674991,-79.396273,Davenport Rd / Avenue Rd,43.674991,-79.396273,0
Adrak,indpak,43.67442258,-79.396629,69.38777386,3.5,11,no data,43.674991,-79.396273,Davenport Rd / Avenue Rd,43.674991,-79.396273,0
Mineral,noodles,43.67763,-79.38947,622.5315227,4.5,26,no data,43.674991,-79.396273,Davenport Rd / Avenue Rd,43.674991,-79.396273,0
Joni Restaurant,bistros,43.66919,-79.39471,644.0039845,4.0,16,no data,43.674991,-79.396273,Davenport Rd / Avenue Rd,43.674991,-79.396273,0
Kibo Secret Garden,japanese,43.6700657,-79.3932832,596.1817786,4.0,32,no data,43.674991,-79.396273,Davenport Rd / Avenue Rd,43.674991,-79.396273,0
Neon Tiger,chicken_wings,43.67726,-79.39828,302.0389775,4.0,5,no data,43.674991,-79.396273,Davenport Rd / Avenue Rd,43.674991,-79.396273,0
Blu Ristorante,italian,43.67239,-79.396085,294.862299,4.0,178,$$$,43.674991,-79.396273,Davenport Rd / Avenue Rd,43.674991,-79.396273,0
Govinda's,vegetarian,43.67684519,-79.39728862,221.7653769,4.0,43,$,43.674991,-79.396273,Davenport Rd / Avenue Rd,43.674991,-79.396273,0
PLANTA Yorkville,vegetarian,43.67028,-79.38945,763.5503813,4.0,507,$$,43.674991,-79.396273,Davenport Rd / Avenue Rd,43.674991,-79.396273,0
Mimi Chinese,chinese,43.67411,-79.3982,181.3568041,4.0,52,no data,43.674991,-79.396273,Davenport Rd / Avenue Rd,43.674991,-79.396273,0
Black Camel,sandwiches,43.67712223,-79.38920971,615.4967575,4.5,382,$,43.674991,-79.396273,Davenport Rd / Avenue Rd,43.674991,-79.396273,0
The MoMo House,himalayan,43.6703275,-79.3901571,714.7375214,4.0,27,no data,43.674991,-79.396273,Davenport Rd / Avenue Rd,43.674991,-79.396273,0
Eataly Toronto,italian,43.66961542,-79.38879486,847.9549336,3.5,293,$$,43.674991,-79.396273,Davenport Rd / Avenue Rd,43.674991,-79.396273,0
Mi'hito Sushi Laboratory,sushi,43.67113783,-79.39445134,452.8097935,4.5,6,no data,43.674991,-79.396273,Davenport Rd / Avenue Rd,43.674991,-79.396273,0
Aburi Hana,sushi,43.67104,-79.392555,533.2263149,4.5,20,no data,43.674991,-79.396273,Davenport Rd / Avenue Rd,43.674991,-79.396273,0
Buca Yorkville,italian,43.67214,-79.3894,637.2147998,4.0,207,$$$,43.674991,-79.396273,Davenport Rd / Avenue Rd,43.674991,-79.396273,0
Avenue Diner,diners,43.67484,-79.39716,56.8326592,2.5,23,$$,43.674991,-79.396273,Davenport Rd / Avenue Rd,43.674991,-79.396273,0
Portici,italian,43.67196,-79.39072,675.0459034,4.0,85,$$,43.674991,-79.396273,Davenport Rd / Avenue Rd,43.674991,-79.396273,0
Corner By Spoon And Fork,thai,43.6715255,-79.3945958,408.2728063,3.5,10,$,43.674991,-79.396273,Davenport Rd / Avenue Rd,43.674991,-79.396273,0
Kasa Moto,japanese,43.670608,-79.3927837,562.3887801,3.5,263,$$$,43.674991,-79.396273,Davenport Rd / Avenue Rd,43.674991,-79.396273,0
Pantry,breakfast_brunch,43.67831695,-79.39019645,612.8512187,4.0,22,$$,43.674991,-79.396273,Davenport Rd / Avenue Rd,43.674991,-79.396273,0
Le Paradis Brasserie Bistro,french,43.67506,-79.40025,309.6545947,3.5,111,$$,43.674991,-79.396273,Davenport Rd / Avenue Rd,43.674991,-79.396273,0
Mogouyan Hand-Pulled Noodles,noodles,43.66943,-79.38671,991.2434185,4.0,89,$$,43.674991,-79.396273,Davenport Rd / Avenue Rd,43.674991,-79.396273,0
The Bar Jokbal Night Market,korean,43.667725,-79.385608,1184.419199,4.5,4,no data,43.674991,-79.396273,Davenport Rd / Avenue Rd,43.674991,-79.396273,0
Kebaberie Yorkville,mideastern,43.67120972,-79.39450723,443.794611,4.0,9,$$,43.674991,-79.396273,Davenport Rd / Avenue Rd,43.674991,-79.396273,0
The Rebel House,pubs,43.67763,-79.39008,585.053049,3.5,123,$$,43.674991,-79.396273,Davenport Rd / Avenue Rd,43.674991,-79.396273,0
Martino's Pizza & Asian Fusion Kitchen,pizza,43.675568,-79.4036442,596.2782491,4.0,45,$$,43.674991,-79.396273,Davenport Rd / Avenue Rd,43.674991,-79.396273,0
Opus Restaurant,wine_bars,43.66921,-79.3972299,647.3310567,4.0,74,$$$$,43.674991,-79.396273,Davenport Rd / Avenue Rd,43.674991,-79.396273,0
FET ZUN,mideastern,43.67524,-79.40636,811.56763,4.5,39,no data,43.674991,-79.396273,Davenport Rd / Avenue Rd,43.674991,-79.396273,0
Quanto Basta,italian,43.67874,-79.39051,627.6162663,3.5,45,$$,43.674991,-79.396273,Davenport Rd / Avenue Rd,43.674991,-79.396273,0
Bar Reyna,mediterranean,43.6700299,-79.39335,609.4965818,3.5,145,$$,43.674991,-79.396273,Davenport Rd / Avenue Rd,43.674991,-79.396273,0
Happy Burger,hotdog,43.6743209,-79.3880618,664.5692293,4.5,16,$$,43.674991,-79.396273,Davenport Rd / Avenue Rd,43.674991,-79.396273,0
Scaramouche Restaurant Pasta Bar & Grill,french,43.68155,-79.39991,771.5193989,4.5,335,$$$$,43.674991,-79.396273,Davenport Rd / Avenue Rd,43.674991,-79.396273,0
Avant Gout Restaurant,french,43.67864,-79.39045,616.208784,4.0,21,no data,43.674991,-79.396273,Davenport Rd / Avenue Rd,43.674991,-79.396273,0
Sorrel,mediterranean,43.6802406,-79.3911819,717.03356,3.5,32,$$$,43.674991,-79.396273,Davenport Rd / Avenue Rd,43.674991,-79.396273,0
Kandl Kafe,cafes,43.6722325,-79.395883,308.3303921,5.0,1,no data,43.674991,-79.396273,Davenport Rd / Avenue Rd,43.674991,-79.396273,0
Okonomi House Restaurant,japanese,43.66831107,-79.38713375,1044.995896,4.0,316,$,43.674991,-79.396273,Davenport Rd / Avenue Rd,43.674991,-79.396273,0
Poppadum,indpak,43.67246,-79.3879,729.6849593,5.0,6,no data,43.674991,-79.396273,Davenport Rd / Avenue Rd,43.674991,-79.396273,0
More Natas Please,desserts,43.66950221,-79.38661024,988.1595608,4.0,9,no data,43.674991,-79.396273,Davenport Rd / Avenue Rd,43.674991,-79.396273,0
Trattoria Nervosa,italian,43.67101,-79.39104,285.7326658,4.0,405,$$,43.671944,-79.387778,Yonge St / Yorkville Ave,43.671944,-79.387778,11
Mogouyan Hand-Pulled Noodles,noodles,43.66943,-79.38671,291.2989246,4.0,89,$$,43.671944,-79.387778,Yonge St / Yorkville Ave,43.671944,-79.387778,11
The Oxley,pubs,43.67059,-79.39304,452.8918477,4.0,182,$$,43.671944,-79.387778,Yonge St / Yorkville Ave,43.671944,-79.387778,11
Public School,cafes,43.6708779,-79.3845954,282.0893796,4.0,8,no data,43.671944,-79.387778,Yonge St / Yorkville Ave,43.671944,-79.387778,11
The Bar Jokbal Night Market,korean,43.667725,-79.385608,504.5188591,4.5,4,no data,43.671944,-79.387778,Yonge St / Yorkville Ave,43.671944,-79.387778,11
PLANTA Yorkville,vegetarian,43.67028,-79.38945,235.0048636,4.0,507,$$,43.671944,-79.387778,Yonge St / Yorkville Ave,43.671944,-79.387778,11
Cafe Landwer - Yonge & Bloor,breakfast_brunch,43.67028,-79.38553,256.0889209,4.0,74,$$,43.671944,-79.387778,Yonge St / Yorkville Ave,43.671944,-79.387778,11
More Natas Please,desserts,43.66950221,-79.38661024,287.3000677,4.0,9,no data,43.671944,-79.387778,Yonge St / Yorkville Ave,43.671944,-79.387778,11
Lao Lao Bar,laotian,43.665799,-79.385537,708.2266914,4.5,45,no data,43.671944,-79.387778,Yonge St / Yorkville Ave,43.671944,-79.387778,11
Yuzuki,japanese,43.6713124,-79.3838651,318.7641046,4.5,43,no data,43.671944,-79.387778,Yonge St / Yorkville Ave,43.671944,-79.387778,11
Okonomi House Restaurant,japanese,43.66831107,-79.38713375,407.2728677,4.0,316,$,43.671944,-79.387778,Yonge St / Yorkville Ave,43.671944,-79.387778,11
Poppadum,indpak,43.67246,-79.3879,58.7276005,5.0,6,no data,43.671944,-79.387778,Yonge St / Yorkville Ave,43.671944,-79.387778,11
Skylight Rooftop Bar,desserts,43.67089267,-79.3845954,281.4033235,4.0,14,$$$$,43.671944,-79.387778,Yonge St / Yorkville Ave,43.671944,-79.387778,11
Eataly Toronto,italian,43.66961542,-79.38879486,271.5357999,3.5,293,$$,43.671944,-79.387778,Yonge St / Yorkville Ave,43.671944,-79.387778,11
156 Cumberland,korean,43.67004,-79.3933,497.559965,4.5,23,no data,43.671944,-79.387778,Yonge St / Yorkville Ave,43.671944,-79.387778,11
Buca Yorkville,italian,43.67214,-79.3894,130.6032756,4.0,207,$$$,43.671944,-79.387778,Yonge St / Yorkville Ave,43.671944,-79.387778,11
Kiro Sushi,japanese,43.67226623,-79.38744119,44.91790365,4.0,81,$$,43.671944,-79.387778,Yonge St / Yorkville Ave,43.671944,-79.387778,11
Sang-Ji Fried Bao,dumplings,43.6686,-79.385637,407.9848244,4.5,10,no data,43.671944,-79.387778,Yonge St / Yorkville Ave,43.671944,-79.387778,11
Clay Restaurant,newcanadian,43.66798,-79.39347,608.4640149,4.0,22,no data,43.671944,-79.387778,Yonge St / Yorkville Ave,43.671944,-79.387778,11
Portici,italian,43.67196,-79.39072,97.53512743,4.0,85,$$,43.671944,-79.387778,Yonge St / Yorkville Ave,43.671944,-79.387778,11
The MoMo House,himalayan,43.6703275,-79.3901571,262.5318253,4.0,27,no data,43.671944,-79.387778,Yonge St / Yorkville Ave,43.671944,-79.387778,11
Tokyo Kitchen,japanese,43.66909401,-79.38511244,382.6115594,4.0,168,$$,43.671944,-79.387778,Yonge St / Yorkville Ave,43.671944,-79.387778,11
Happy Burger,hotdog,43.6743209,-79.3880618,265.2826832,4.5,16,$$,43.671944,-79.387778,Yonge St / Yorkville Ave,43.671944,-79.387778,11
Café Boulud,cafes,43.6719213,-79.388922,92.04403385,3.5,276,$$$$,43.671944,-79.387778,Yonge St / Yorkville Ave,43.671944,-79.387778,11
Lee Chen Bistro,dimsum,43.672372,-79.387436,54.96845068,3.5,174,$$,43.671944,-79.387778,Yonge St / Yorkville Ave,43.671944,-79.387778,11
Fieramosca,italian,43.66963,-79.39719,813.4544659,4.5,112,$$$,43.671944,-79.387778,Yonge St / Yorkville Ave,43.671944,-79.387778,11
Yorkville Crepes,creperies,43.6721931,-79.3878664,28.59655831,3.5,187,$$,43.671944,-79.387778,Yonge St / Yorkville Ave,43.671944,-79.387778,11
Koyoi Restaurant & Bar,japanese,43.66667863,-79.38546762,614.2647764,4.0,135,$$,43.671944,-79.387778,Yonge St / Yorkville Ave,43.671944,-79.387778,11
Grandma Loves You,sandwiches,43.677846,-79.39010811,682.5026338,5.0,75,$$,43.671944,-79.387778,Yonge St / Yorkville Ave,43.671944,-79.387778,11
D Azur,french,43.67162,-79.38971,160.8308851,4.0,1,no data,43.671944,-79.387778,Yonge St / Yorkville Ave,43.671944,-79.387778,11
Naan & Kabob,afghani,43.66905,-79.38606,350.6437925,4.0,147,$$,43.671944,-79.387778,Yonge St / Yorkville Ave,43.671944,-79.387778,11
Mineral,noodles,43.67763,-79.38947,647.6868086,4.5,26,no data,43.671944,-79.387778,Yonge St / Yorkville Ave,43.671944,-79.387778,11
AP Restaurants,asianfusion,43.66969059,-79.38876005,262.7215474,3.5,18,no data,43.671944,-79.387778,Yonge St / Yorkville Ave,43.671944,-79.387778,11
Joni Restaurant,bistros,43.66919,-79.39471,655.1462414,4.0,16,no data,43.671944,-79.387778,Yonge St / Yorkville Ave,43.671944,-79.387778,11
Kibo Secret Garden,japanese,43.6700657,-79.3932832,489.1167134,4.0,32,no data,43.671944,-79.387778,Yonge St / Yorkville Ave,43.671944,-79.387778,11
Dalbam,korean,43.669914,-79.383017,444.5021617,5.0,1,no data,43.671944,-79.387778,Yonge St / Yorkville Ave,43.671944,-79.387778,11
Aburi Hana,sushi,43.67104,-79.392555,401.4598057,4.5,20,no data,43.671944,-79.387778,Yonge St / Yorkville Ave,43.671944,-79.387778,11
Miznon,mideastern,43.6708883,-79.389677,192.6333777,4.0,25,no data,43.671944,-79.387778,Yonge St / Yorkville Ave,43.671944,-79.387778,11
Mabu Generation,taiwanese,43.66509562,-79.38482992,797.5679646,4.0,54,$$,43.671944,-79.387778,Yonge St / Yorkville Ave,43.671944,-79.387778,11
Kasa Moto,japanese,43.670608,-79.3927837,429.1354768,3.5,263,$$$,43.671944,-79.387778,Yonge St / Yorkville Ave,43.671944,-79.387778,11
Miss Fu In Chengdu,chinese,43.66748,-79.38535,530.5410239,4.0,8,no data,43.671944,-79.387778,Yonge St / Yorkville Ave,43.671944,-79.387778,11
Black Camel,sandwiches,43.67712223,-79.38920971,587.1927949,4.5,382,$,43.671944,-79.387778,Yonge St / Yorkville Ave,43.671944,-79.387778,11
8Mile Detroit Style Pizza,pizza,43.66848,-79.38678,398.9051193,4.5,57,no data,43.671944,-79.387778,Yonge St / Yorkville Ave,43.671944,-79.387778,11
Constantine,mediterranean,43.66858,-79.38537,434.0477052,3.5,132,$$,43.671944,-79.387778,Yonge St / Yorkville Ave,43.671944,-79.387778,11
Amal,lebanese,43.66875,-79.39235,506.4622496,3.5,83,no data,43.671944,-79.387778,Yonge St / Yorkville Ave,43.671944,-79.387778,11
Bhoj Indian Cuisine,indpak,43.67277,-79.389,141.9073751,4.0,72,$$,43.671944,-79.387778,Yonge St / Yorkville Ave,43.671944,-79.387778,11
Maison Selby,french,43.67127278,-79.37660005,902.1159866,4.0,114,no data,43.671944,-79.387778,Yonge St / Yorkville Ave,43.671944,-79.387778,11
Cabano's Comfort Food,comfortfood,43.66767,-79.38642,477.566597,4.5,80,no data,43.671944,-79.387778,Yonge St / Yorkville Ave,43.671944,-79.387778,11
Robot Boil House,seafood,43.67471,-79.38819,309.5248505,4.0,22,$$$,43.671944,-79.387778,Yonge St / Yorkville Ave,43.671944,-79.387778,11
Potato Noodle Soup of Bai,chinese,43.667939,-79.385662,475.0355169,4.5,4,no data,43.671944,-79.387778,Yonge St / Yorkville Ave,43.671944,-79.387778,11
Urban House,pubs,43.65902322,-79.34961017,390.5363578,4.5,13,$,43.662365,-79.351104,Dundas St E / Broadview Ave,43.662365,-79.351104,16
Dine & Dim,dimsum,43.6656274,-79.3506883,369.3676634,4.5,28,no data,43.662365,-79.351104,Dundas St E / Broadview Ave,43.662365,-79.351104,16
The Comrade,lounges,43.65939226,-79.34794833,416.7797305,4.0,87,$$,43.662365,-79.351104,Dundas St E / Broadview Ave,43.662365,-79.351104,16
ēst Restaurant,newcanadian,43.658933,-79.34902098,416.7879385,4.0,26,no data,43.662365,-79.351104,Dundas St E / Broadview Ave,43.662365,-79.351104,16
O’SOMAE,breakfast_brunch,43.6653004,-79.3522633,336.914065,4.5,30,$$,43.662365,-79.351104,Dundas St E / Broadview Ave,43.662365,-79.351104,16
White Lily Diner,breakfast_brunch,43.65881,-79.3511599,395.1520119,4.5,145,$$,43.662365,-79.351104,Dundas St E / Broadview Ave,43.662365,-79.351104,16
Completo,latin,43.6648244,-79.35218672,287.0056931,4.5,15,no data,43.662365,-79.351104,Dundas St E / Broadview Ave,43.662365,-79.351104,16
Wynona,italian,43.66706,-79.34454,737.1358683,4.5,62,no data,43.662365,-79.351104,Dundas St E / Broadview Ave,43.662365,-79.351104,16
Lady Marmalade,breakfast_brunch,43.66319,-79.35134,98.5040139,4.0,634,$$,43.662365,-79.351104,Dundas St E / Broadview Ave,43.662365,-79.351104,16
Hermie’s,diners,43.65852742,-79.3500979,434.3261061,4.5,8,no data,43.662365,-79.351104,Dundas St E / Broadview Ave,43.662365,-79.351104,16
Supreme Taste,chinese,43.665172,-79.352155,317.9089965,5.0,14,no data,43.662365,-79.351104,Dundas St E / Broadview Ave,43.662365,-79.351104,16
Oji Seichi,ramen,43.66509,-79.35265,332.6639598,4.0,38,$$,43.662365,-79.351104,Dundas St E / Broadview Ave,43.662365,-79.351104,16
Gusto 501,italian,43.65464,-79.3595,1090.743671,4.0,65,no data,43.662365,-79.351104,Dundas St E / Broadview Ave,43.662365,-79.351104,16
The Broadview Bistro Bar,bistros,43.65896752,-79.3501888,384.8886434,4.0,1,no data,43.662365,-79.351104,Dundas St E / Broadview Ave,43.662365,-79.351104,16
Prohibition Social House,gastropubs,43.65894,-79.35041,390.190819,3.5,17,no data,43.662365,-79.351104,Dundas St E / Broadview Ave,43.662365,-79.351104,16
Isaan Der,thai,43.65916203,-79.34912266,390.1908683,4.0,24,no data,43.662365,-79.351104,Dundas St E / Broadview Ave,43.662365,-79.351104,16
Farside,bars,43.66585,-79.35182,390.9050585,4.5,11,$$,43.662365,-79.351104,Dundas St E / Broadview Ave,43.662365,-79.351104,16
Eastside Social,seafood,43.661432,-79.339113,970.1342375,4.5,80,$$,43.662365,-79.351104,Dundas St E / Broadview Ave,43.662365,-79.351104,16
Que Ling Restaurant,vietnamese,43.6658199,-79.34941,407.8594162,4.0,94,$,43.662365,-79.351104,Dundas St E / Broadview Ave,43.662365,-79.351104,16
Tabule Middle Eastern Cuisine,mideastern,43.659652,-79.346481,478.8574771,4.0,202,$$,43.662365,-79.351104,Dundas St E / Broadview Ave,43.662365,-79.351104,16
Kismet Turkish Restaurant,kebab,43.659624,-79.347294,433.0393033,4.0,2,no data,43.662365,-79.351104,Dundas St E / Broadview Ave,43.662365,-79.351104,16
Batifole Restaurant,french,43.66678,-79.34733,576.7532473,4.0,84,$$$,43.662365,-79.351104,Dundas St E / Broadview Ave,43.662365,-79.351104,16
La Carnita,mexican,43.6596718,-79.3473892,424.5729836,3.5,130,$$,43.662365,-79.351104,Dundas St E / Broadview Ave,43.662365,-79.351104,16
Bach Yen,vietnamese,43.66684,-79.34756,563.6531372,4.0,214,$,43.662365,-79.351104,Dundas St E / Broadview Ave,43.662365,-79.351104,16
Frankie's,italian,43.66054,-79.343175,669.327709,4.0,39,no data,43.662365,-79.351104,Dundas St E / Broadview Ave,43.662365,-79.351104,16
Lamoon Thai Cafe,cafes,43.66628,-79.34804,502.9844549,4.5,13,no data,43.662365,-79.351104,Dundas St E / Broadview Ave,43.662365,-79.351104,16
Dumpling House,dimsum,43.6656887,-79.351097,369.5785967,3.5,89,$,43.662365,-79.351104,Dundas St E / Broadview Ave,43.662365,-79.351104,16
Pho House,vietnamese,43.66566,-79.35089,361.2978733,4.0,83,$$,43.662365,-79.351104,Dundas St E / Broadview Ave,43.662365,-79.351104,16
EAT BKK Thai Kitchen,thai,43.6605957,-79.3429889,681.7951754,4.0,74,$$,43.662365,-79.351104,Dundas St E / Broadview Ave,43.662365,-79.351104,16
Mi Mi Restaurant,vietnamese,43.66633091,-79.3492289,466.0693519,4.0,138,$,43.662365,-79.351104,Dundas St E / Broadview Ave,43.662365,-79.351104,16
Wok & Roast Chinese BBQ,chinese,43.66505,-79.35218,311.8795631,3.5,106,$,43.662365,-79.351104,Dundas St E / Broadview Ave,43.662365,-79.351104,16
Tong Mein,noodles,43.65811,-79.35239,484.9719795,5.0,3,no data,43.662365,-79.351104,Dundas St E / Broadview Ave,43.662365,-79.351104,16
The Opera House Grill,newcanadian,43.65906227,-79.34875589,412.9757923,3.5,14,$,43.662365,-79.351104,Dundas St E / Broadview Ave,43.662365,-79.351104,16
Souk Tabule,mideastern,43.653832,-79.354442,986.092127,4.5,124,$$,43.662365,-79.351104,Dundas St E / Broadview Ave,43.662365,-79.351104,16
Café Zuzu,cafes,43.65992,-79.36271,976.562807,4.5,10,no data,43.662365,-79.351104,Dundas St E / Broadview Ave,43.662365,-79.351104,16
Hanley's Nashville Hot Chicken,mexican,43.65967,-79.34739,424.5729836,3.5,5,no data,43.662365,-79.351104,Dundas St E / Broadview Ave,43.662365,-79.351104,16
The Civic At the Broadview Hotel,tradamerican,43.65897875,-79.35016224,384.0787993,3.0,28,no data,43.662365,-79.351104,Dundas St E / Broadview Ave,43.662365,-79.351104,16
Juzz Sushi,sushi,43.66053218,-79.3430111,682.1626205,4.0,49,no data,43.662365,-79.351104,Dundas St E / Broadview Ave,43.662365,-79.351104,16
Ladybug Wine Bar,wine_bars,43.65659297,-79.35710929,803.312982,5.0,2,no data,43.662365,-79.351104,Dundas St E / Broadview Ave,43.662365,-79.351104,16
East End Vine,tapasmallplates,43.666996,-79.344665,732.7430126,5.0,3,no data,43.662365,-79.351104,Dundas St E / Broadview Ave,43.662365,-79.351104,16
Slayer Burger,burgers,43.6590207,-79.348392,427.3086241,3.5,15,no data,43.662365,-79.351104,Dundas St E / Broadview Ave,43.662365,-79.351104,16
Bonjour Brioche,breakfast_brunch,43.65985,-79.34627,478.0747867,3.5,309,$$,43.662365,-79.351104,Dundas St E / Broadview Ave,43.662365,-79.351104,16
Reyna on King,tapas,43.65346,-79.36226,1336.400029,4.0,37,no data,43.662365,-79.351104,Dundas St E / Broadview Ave,43.662365,-79.351104,16
Sushi Bar,japanese,43.66492,-79.35264,311.7640903,3.5,51,$$,43.662365,-79.351104,Dundas St E / Broadview Ave,43.662365,-79.351104,16
Riverside Burgers,burgers,43.6588602,-79.3507152,393.1427445,4.5,16,no data,43.662365,-79.351104,Dundas St E / Broadview Ave,43.662365,-79.351104,16
Hanoi 3 Seasons,vietnamese,43.66566953,-79.35207454,375.648366,3.5,68,$$,43.662365,-79.351104,Dundas St E / Broadview Ave,43.662365,-79.351104,16
Lamoon Thai Cafe,cafes,43.6662835,-79.34807286,499.2962897,4.5,9,no data,43.662365,-79.351104,Dundas St E / Broadview Ave,43.662365,-79.351104,16
Bamboo Leaves,chinese,43.6658172,-79.350197,390.7383376,4.5,2,no data,43.662365,-79.351104,Dundas St E / Broadview Ave,43.662365,-79.351104,16
Il Ponte Cucina Italiana,italian,43.65798869,-79.35307021,511.6828096,3.5,63,$$$,43.662365,-79.351104,Dundas St E / Broadview Ave,43.662365,-79.351104,16
Blessed Love,caribbean,43.6591297,-79.3480149,437.2290106,4.5,2,no data,43.662365,-79.351104,Dundas St E / Broadview Ave,43.662365,-79.351104,16
Richmond Station,newcanadian,43.6513729,-79.379285,591.090317,4.5,906,$$$,43.646144,-79.377962,Front St W / Yonge St (Hockey Hall of Fame),43.646144,-79.377962,9
Library Bar,lounges,43.6461717,-79.3811365,255.4462874,4.0,128,$$$,43.646144,-79.377962,Front St W / Yonge St (Hockey Hall of Fame),43.646144,-79.377962,9
The Rabbit Hole,gastropubs,43.64995,-79.37976,455.5987777,4.0,36,no data,43.646144,-79.377962,Front St W / Yonge St (Hockey Hall of Fame),43.646144,-79.377962,9
Amano Trattoria,italian,43.64778,-79.37319,427.9472795,4.5,24,no data,43.646144,-79.377962,Front St W / Yonge St (Hockey Hall of Fame),43.646144,-79.377962,9
Chotto Matte,japanese,43.64628671,-79.37887148,74.87951565,4.0,165,no data,43.646144,-79.377962,Front St W / Yonge St (Hockey Hall of Fame),43.646144,-79.377962,9
Beerbistro,bistros,43.64946713,-79.37716965,374.9745739,4.0,681,$$,43.646144,-79.377962,Front St W / Yonge St (Hockey Hall of Fame),43.646144,-79.377962,9
King Taps,newcanadian,43.64863793,-79.3817439,411.6998977,4.0,400,$$,43.646144,-79.377962,Front St W / Yonge St (Hockey Hall of Fame),43.646144,-79.377962,9
Pai Northern Thai Kitchen,thai,43.64784,-79.38872,883.769577,4.5,3475,$$,43.646144,-79.377962,Front St W / Yonge St (Hockey Hall of Fame),43.646144,-79.377962,9
The Butcher Chef,steak,43.6430184,-79.3757759,386.1072328,4.5,16,no data,43.646144,-79.377962,Front St W / Yonge St (Hockey Hall of Fame),43.646144,-79.377962,9
Cactus Club Cafe,cocktailbars,43.64950421,-79.38251803,523.4358328,4.0,603,$$,43.646144,-79.377962,Front St W / Yonge St (Hockey Hall of Fame),43.646144,-79.377962,9
Reign Restaurant + Bar + Bakery,steak,43.64558198,-79.38185347,319.2934771,4.0,33,no data,43.646144,-79.377962,Front St W / Yonge St (Hockey Hall of Fame),43.646144,-79.377962,9
The Loose Moose,sportsbars,43.64522746,-79.3838502,484.6194891,3.5,460,$$,43.646144,-79.377962,Front St W / Yonge St (Hockey Hall of Fame),43.646144,-79.377962,9
Mama Lee's Korean Kitchen,korean,43.64325,-79.37636,352.8823871,4.0,27,no data,43.646144,-79.377962,Front St W / Yonge St (Hockey Hall of Fame),43.646144,-79.377962,9
Pearl Diver,seafood,43.65163,-79.37375,691.2413201,4.0,629,$$,43.646144,-79.377962,Front St W / Yonge St (Hockey Hall of Fame),43.646144,-79.377962,9
Cafe Oro Di Napoli,pizza,43.65142571,-79.3721592,750.2689896,4.5,97,$$,43.646144,-79.377962,Front St W / Yonge St (Hockey Hall of Fame),43.646144,-79.377962,9
Sansotei Ramen,ramen,43.645322,-79.380408,217.000983,4.5,16,no data,43.646144,-79.377962,Front St W / Yonge St (Hockey Hall of Fame),43.646144,-79.377962,9
KINKA IZAKAYA HARBOURFRONT,japanese,43.64142224,-79.3800441,551.1179814,4.0,78,no data,43.646144,-79.377962,Front St W / Yonge St (Hockey Hall of Fame),43.646144,-79.377962,9
Steam Whistle Biergarten,german,43.640853,-79.385279,832.3359818,4.5,34,no data,43.646144,-79.377962,Front St W / Yonge St (Hockey Hall of Fame),43.646144,-79.377962,9
Byblos,mediterranean,43.647546,-79.388123,832.2989915,4.5,905,$$$$,43.646144,-79.377962,Front St W / Yonge St (Hockey Hall of Fame),43.646144,-79.377962,9
Miku,japanese,43.6412346,-79.3773697,547.9762889,4.0,898,$$$$,43.646144,-79.377962,Front St W / Yonge St (Hockey Hall of Fame),43.646144,-79.377962,9
Stratus,newcanadian,43.64663,-79.38114,277.9917505,4.0,51,$$$,43.646144,-79.377962,Front St W / Yonge St (Hockey Hall of Fame),43.646144,-79.377962,9
Teller's Bar and Lounge,international,43.64882,-79.37805,302.0984413,4.5,5,$$,43.646144,-79.377962,Front St W / Yonge St (Hockey Hall of Fame),43.646144,-79.377962,9
Taverna Mercatto,italian,43.64267221,-79.38276015,545.9758375,3.5,234,$$,43.646144,-79.377962,Front St W / Yonge St (Hockey Hall of Fame),43.646144,-79.377962,9
The Roof at SOCO,newcanadian,43.64303,-79.38379,586.1678354,4.0,17,no data,43.646144,-79.377962,Front St W / Yonge St (Hockey Hall of Fame),43.646144,-79.377962,9
Chefs Hall,food_court,43.6503522,-79.3837951,662.7426136,4.0,320,$$,43.646144,-79.377962,Front St W / Yonge St (Hockey Hall of Fame),43.646144,-79.377962,9
Evviva Breakfast & Lunch,breakfast_brunch,43.641602,-79.383301,663.047928,4.0,379,$$,43.646144,-79.377962,Front St W / Yonge St (Hockey Hall of Fame),43.646144,-79.377962,9
Union Food Court,food_court,43.64457641,-79.3813406,322.9357145,3.5,8,no data,43.646144,-79.377962,Front St W / Yonge St (Hockey Hall of Fame),43.646144,-79.377962,9
Clockwork Champagne & Cocktails,cocktailbars,43.64595,-79.38143,323.7458478,4.0,23,no data,43.646144,-79.377962,Front St W / Yonge St (Hockey Hall of Fame),43.646144,-79.377962,9
Grandma Loves You,hotdog,43.65030223,-79.3839517,667.8657615,4.5,11,no data,43.646144,-79.377962,Front St W / Yonge St (Hockey Hall of Fame),43.646144,-79.377962,9
Piano Piano,pizza,43.64897516,-79.3746921,410.2757329,4.0,29,no data,43.646144,-79.377962,Front St W / Yonge St (Hockey Hall of Fame),43.646144,-79.377962,9
Kellys Landing,sportsbars,43.6448899,-79.38305,406.5343105,3.5,199,$$,43.646144,-79.377962,Front St W / Yonge St (Hockey Hall of Fame),43.646144,-79.377962,9
Canoe,newcanadian,43.646954,-79.382159,349.5029706,4.0,747,$$$$,43.646144,-79.377962,Front St W / Yonge St (Hockey Hall of Fame),43.646144,-79.377962,9
Don Alfonso 1890,italian,43.6413515,-79.3758977,604.9381751,4.0,45,$$$$,43.646144,-79.377962,Front St W / Yonge St (Hockey Hall of Fame),43.646144,-79.377962,9
Woods Restaurant & Bar,newcanadian,43.6489963,-79.3750324,395.1626743,4.0,96,$$$,43.646144,-79.377962,Front St W / Yonge St (Hockey Hall of Fame),43.646144,-79.377962,9
Uncle Tony's,italian,43.6486015,-79.3749695,346.0891116,4.0,77,$$,43.646144,-79.377962,Front St W / Yonge St (Hockey Hall of Fame),43.646144,-79.377962,9
E11even,seafood,43.64280107,-79.38124144,455.8566668,3.5,175,$$$,43.646144,-79.377962,Front St W / Yonge St (Hockey Hall of Fame),43.646144,-79.377962,9
Laylak Lebanese Cuisine,lebanese,43.65070215,-79.3761808,526.715022,4.5,10,no data,43.646144,-79.377962,Front St W / Yonge St (Hockey Hall of Fame),43.646144,-79.377962,9
Cafe Landwer - Adelaide & University,cafes,43.64875,-79.38491,637.7430507,4.0,528,$$,43.646144,-79.377962,Front St W / Yonge St (Hockey Hall of Fame),43.646144,-79.377962,9
Ki Modern Japanese + Bar,japanese,43.64721,-79.37933,132.8078555,3.5,247,$$$,43.646144,-79.377962,Front St W / Yonge St (Hockey Hall of Fame),43.646144,-79.377962,9
Zen Kyoto,sushi,43.64847228,-79.3826363,456.5906533,4.0,12,no data,43.646144,-79.377962,Front St W / Yonge St (Hockey Hall of Fame),43.646144,-79.377962,9
WVRST Union Station,beerbar,43.644936,-79.381269,298.0730711,4.0,65,$$,43.646144,-79.377962,Front St W / Yonge St (Hockey Hall of Fame),43.646144,-79.377962,9
Carisma,italian,43.65032,-79.37596,492.6096465,4.0,200,$$$,43.646144,-79.377962,Front St W / Yonge St (Hockey Hall of Fame),43.646144,-79.377962,9
Lee Chen Asian Bistro - King,dimsum,43.64736906,-79.38676279,721.1082518,4.0,206,$$,43.646144,-79.377962,Front St W / Yonge St (Hockey Hall of Fame),43.646144,-79.377962,9
Impact Kitchen,coffee,43.64085,-79.37871,532.3847621,4.5,19,no data,43.646144,-79.377962,Front St W / Yonge St (Hockey Hall of Fame),43.646144,-79.377962,9
11:59 Bar:Café,cocktailbars,43.65048542,-79.38199129,581.5002104,4.0,4,no data,43.646144,-79.377962,Front St W / Yonge St (Hockey Hall of Fame),43.646144,-79.377962,9
Corks,tapasmallplates,43.64234,-79.38083,449.5567996,4.0,27,$,43.646144,-79.377962,Front St W / Yonge St (Hockey Hall of Fame),43.646144,-79.377962,9
Dukes Refresher,tradamerican,43.6485525,-79.3729104,486.7542839,4.0,12,$$,43.646144,-79.377962,Front St W / Yonge St (Hockey Hall of Fame),43.646144,-79.377962,9
My Roti Place,indpak,43.6417149,-79.37577102,523.0971721,3.5,25,no data,43.646144,-79.377962,Front St W / Yonge St (Hockey Hall of Fame),43.646144,-79.377962,9
Bob's Bulgogi,korean,43.652139,-79.377507,667.6173097,4.0,89,$,43.646144,-79.377962,Front St W / Yonge St (Hockey Hall of Fame),43.646144,-79.377962,9
Daily Ritual Cafe,cafes,43.6488799,-79.37814396,304.5697702,4.0,9,no data,43.646144,-79.377962,Front St W / Yonge St (Hockey Hall of Fame),43.646144,-79.377962,9
Dine & Dim,dimsum,43.6656274,-79.3506883,658.1226875,4.5,28,no data,43.663993,-79.358534,Gerrard St E / River St,43.663993,-79.358534,11
Café Zuzu,cafes,43.65992,-79.36271,563.1668804,4.5,10,no data,43.663993,-79.358534,Gerrard St E / River St,43.663993,-79.358534,11
O’SOMAE,breakfast_brunch,43.6653004,-79.3522633,524.9825518,4.5,30,$$,43.663993,-79.358534,Gerrard St E / River St,43.663993,-79.358534,11
Completo,latin,43.6648244,-79.35218672,518.8638517,4.5,15,no data,43.663993,-79.358534,Gerrard St E / River St,43.663993,-79.358534,11
Oji Seichi,ramen,43.66509,-79.35265,490.5521304,4.0,38,$$,43.663993,-79.358534,Gerrard St E / River St,43.663993,-79.358534,11
Lady Marmalade,breakfast_brunch,43.66319,-79.35134,572.1678716,4.0,634,$$,43.663993,-79.358534,Gerrard St E / River St,43.663993,-79.358534,11
Supreme Taste,chinese,43.665172,-79.352155,521.859106,5.0,14,no data,43.663993,-79.358534,Gerrard St E / River St,43.663993,-79.358534,11
White Lily Diner,breakfast_brunch,43.65881,-79.3511599,825.9418967,4.5,145,$$,43.663993,-79.358534,Gerrard St E / River St,43.663993,-79.358534,11
Urban House,pubs,43.65902322,-79.34961017,905.9188434,4.5,13,$,43.663993,-79.358534,Gerrard St E / River St,43.663993,-79.358534,11
Farside,bars,43.66585,-79.35182,575.112984,4.5,11,$$,43.663993,-79.358534,Gerrard St E / River St,43.663993,-79.358534,11
Saigon PAI,thai,43.663435,-79.367799,747.8440945,4.5,59,$$,43.663993,-79.358534,Gerrard St E / River St,43.663993,-79.358534,11
Gushi Japanese Street Food,japanese,43.66255,-79.36741,733.8346785,4.0,17,no data,43.663993,-79.358534,Gerrard St E / River St,43.663993,-79.358534,11
Hermie’s,diners,43.65852742,-79.3500979,910.9745364,4.5,8,no data,43.663993,-79.358534,Gerrard St E / River St,43.663993,-79.358534,11
ēst Restaurant,newcanadian,43.658933,-79.34902098,949.8262919,4.0,26,no data,43.663993,-79.358534,Gerrard St E / River St,43.663993,-79.358534,11
Naija Jollof,african,43.66504,-79.36796,764.755122,0.0,0,no data,43.663993,-79.358534,Gerrard St E / River St,43.663993,-79.358534,11
The Broadview Bistro Bar,bistros,43.65896752,-79.3501888,873.4489769,4.0,1,no data,43.663993,-79.358534,Gerrard St E / River St,43.663993,-79.358534,11
Que Ling Restaurant,vietnamese,43.6658199,-79.34941,759.6222941,4.0,94,$,43.663993,-79.358534,Gerrard St E / River St,43.663993,-79.358534,11
Ladybug Wine Bar,wine_bars,43.65659297,-79.35710929,830.7884109,5.0,2,no data,43.663993,-79.358534,Gerrard St E / River St,43.663993,-79.358534,11
The House On Parliament,british,43.66359,-79.36794,755.6913828,4.0,317,$$,43.663993,-79.358534,Gerrard St E / River St,43.663993,-79.358534,11
Prohibition Social House,gastropubs,43.65894,-79.35041,866.7070013,3.5,17,no data,43.663993,-79.358534,Gerrard St E / River St,43.663993,-79.358534,11
El Nahual Tacos,mexican,43.666945,-79.36922,920.0882492,4.5,150,$,43.663993,-79.358534,Gerrard St E / River St,43.663993,-79.358534,11
The Comrade,lounges,43.65939226,-79.34794833,993.3839137,4.0,87,$$,43.663993,-79.358534,Gerrard St E / River St,43.663993,-79.358534,11
Dumpling House,dimsum,43.6656887,-79.351097,627.2242209,3.5,89,$,43.663993,-79.358534,Gerrard St E / River St,43.663993,-79.358534,11
Pho House,vietnamese,43.66566,-79.35089,638.3601005,4.0,83,$$,43.663993,-79.358534,Gerrard St E / River St,43.663993,-79.358534,11
Playground Cafe,cafes,43.6648746,-79.3684892,806.7529664,4.5,16,no data,43.663993,-79.358534,Gerrard St E / River St,43.663993,-79.358534,11
Wok & Roast Chinese BBQ,chinese,43.66505,-79.35218,527.7638416,3.5,106,$,43.663993,-79.358534,Gerrard St E / River St,43.663993,-79.358534,11
Isaan Der,thai,43.65916203,-79.34912266,928.2818405,4.0,24,no data,43.663993,-79.358534,Gerrard St E / River St,43.663993,-79.358534,11
Batifole Restaurant,french,43.66678,-79.34733,952.6123518,4.0,84,$$$,43.663993,-79.358534,Gerrard St E / River St,43.663993,-79.358534,11
Lamoon Thai Cafe,cafes,43.66628,-79.34804,885.9436642,4.5,13,no data,43.663993,-79.358534,Gerrard St E / River St,43.663993,-79.358534,11
Mi Mi Restaurant,vietnamese,43.66633091,-79.3492289,792.3341258,4.0,138,$,43.663993,-79.358534,Gerrard St E / River St,43.663993,-79.358534,11
Krystos Modern Greek Cuisine,greek,43.65882,-79.35996,554.4123966,3.0,4,no data,43.663993,-79.358534,Gerrard St E / River St,43.663993,-79.358534,11
King Solomon and Queen of Sheba,ethiopian,43.65580582,-79.36393652,1008.787975,4.5,24,$$,43.663993,-79.358534,Gerrard St E / River St,43.663993,-79.358534,11
Tong Mein,noodles,43.65811,-79.35239,820.6220377,5.0,3,no data,43.663993,-79.358534,Gerrard St E / River St,43.663993,-79.358534,11
Kismet Turkish Restaurant,kebab,43.659624,-79.347294,1027.350679,4.0,2,no data,43.663993,-79.358534,Gerrard St E / River St,43.663993,-79.358534,11
Bach Yen,vietnamese,43.66684,-79.34756,934.1863209,4.0,214,$,43.663993,-79.358534,Gerrard St E / River St,43.663993,-79.358534,11
Sushi Bar,japanese,43.66492,-79.35264,482.2140419,3.5,51,$$,43.663993,-79.358534,Gerrard St E / River St,43.663993,-79.358534,11
Pastor Taco,icecream,43.66190882,-79.36905132,877.1793924,4.5,9,no data,43.663993,-79.358534,Gerrard St E / River St,43.663993,-79.358534,11
Revelstoke Cafe,breakfast_brunch,43.663534,-79.370609,972.087263,4.5,6,no data,43.663993,-79.358534,Gerrard St E / River St,43.663993,-79.358534,11
Jerk Paradise,caribbean,43.66212121,-79.36677371,694.7107265,3.5,19,no data,43.663993,-79.358534,Gerrard St E / River St,43.663993,-79.358534,11
Momo Ghar,himalayan,43.66741,-79.36953,957.7029406,5.0,11,no data,43.663993,-79.358534,Gerrard St E / River St,43.663993,-79.358534,11
L’Avenue,french,43.66740755,-79.3690964,930.5778083,4.5,8,no data,43.663993,-79.358534,Gerrard St E / River St,43.663993,-79.358534,11
Salt and Tobacco,pizza,43.66536,-79.3681299,789.9752071,4.5,63,$$,43.663993,-79.358534,Gerrard St E / River St,43.663993,-79.358534,11
Ju Sushi & Bar,bars,43.65875,-79.36822,977.2625122,4.5,9,no data,43.663993,-79.358534,Gerrard St E / River St,43.663993,-79.358534,11
Bamboo Leaves,chinese,43.6658172,-79.350197,700.6111717,4.5,2,no data,43.663993,-79.358534,Gerrard St E / River St,43.663993,-79.358534,11
Maya Bay Thai,thai,43.66447,-79.3682,735.1256156,4.5,51,no data,43.663993,-79.358534,Gerrard St E / River St,43.663993,-79.358534,11
Hanoi 3 Seasons,vietnamese,43.66566953,-79.35207454,552.0129252,3.5,68,$$,43.663993,-79.358534,Gerrard St E / River St,43.663993,-79.358534,11
Tabule Middle Eastern Cuisine,mideastern,43.659652,-79.346481,1083.070675,4.0,202,$$,43.663993,-79.358534,Gerrard St E / River St,43.663993,-79.358534,11
